[
  {
    "id": "M1",
    "org": "移動站",
    "name": "土城和平路(移動站)",
    "city": "新北市",
    "town": "土城區",
    "lon": 121.449011,
    "lat": 24.969077,
    "url": "https://fmg.wra.gov.tw/FMGP/ccd_proxy?sn=8003"
  },
  {
    "id": "F1",
    "org": "第四台業者",
    "name": "大安幼稚園-1(第四台業者提供)",
    "city": "臺中市",
    "town": "大安區",
    "lon": 120.607886,
    "lat": 24.348699,
    "url": "https://fmg.wra.gov.tw/FMGP/SingeView?sn=6258&ft=C&ht=0"
  },
  {
    "id": "F13",
    "org": "第四台業者",
    "name": "永安區新港里新溝排水上游",
    "city": "高雄市",
    "town": "永安區",
    "lon": 120.2117279,
    "lat": 22.8184219,
    "url": "https://fmg.wra.gov.tw/FMGP/SingeView?sn=6280&ft=C&ht=0"
  },
  {
    "id": "F14",
    "org": "第四台業者",
    "name": "永安區新港里新溝排水中游",
    "city": "高雄市",
    "town": "永安區",
    "lon": 120.2096951,
    "lat": 22.8238237,
    "url": "https://fmg.wra.gov.tw/FMGP/SingeView?sn=6281&ft=C&ht=0"
  },
  {
    "id": "I5",
    "org": "重點防汛工程影像",
    "name": "曾文溪排水十二佃0K+650~1K+300_工區",
    "city": "臺南市",
    "town": "安南區",
    "lon": 120.174551,
    "lat": 23.061045,
    "url": "https://fmg.wra.gov.tw/FMGP/SingeView?sn=6311&ft=C&ht=0"
  },
  {
    "id": "I17",
    "org": "重點防汛工程影像",
    "name": "崙子溪將軍舊社堤段1",
    "city": "雲林縣",
    "town": "斗南鎮",
    "lon": 120.50365,
    "lat": 23.661945,
    "url": "https://fmg.wra.gov.tw/FMGP/SingeView?sn=6283&ft=C&ht=0"
  },
  {
    "id": "I18",
    "org": "重點防汛工程影像",
    "name": "大湖口溪林子舊社堤防-工區1",
    "city": "雲林縣",
    "town": "斗南鎮",
    "lon": 120.488727,
    "lat": 23.659673,
    "url": "https://fmg.wra.gov.tw/FMGP/SingeView?sn=6284&ft=C&ht=0"
  },
  {
    "id": "I21",
    "org": "重點防汛工程影像",
    "name": "下竹圍中排二抽水站(移動站)",
    "city": "嘉義縣",
    "town": "朴子市",
    "lon": 120.229451,
    "lat": 23.453123,
    "url": "https://video3.focusit.com.tw/giscam/player/index.html?uuid=6e8b5835-fc20-4c4d-b5d2-bce4dbe52145&node_id=1"
  },
  {
    "id": "I22",
    "org": "重點防汛工程影像",
    "name": "中三塊排水系統水門抽水站(移動站)",
    "city": "嘉義縣",
    "town": "東石鄉",
    "lon": 120.148167,
    "lat": 23.454584,
    "url": "https://video3.focusit.com.tw/giscam/player/index.html?uuid=f287ae2e-4e94-4050-8cc7-c532d6518fb8&node_id=1"
  },
  {
    "id": "C607",
    "org": "各縣市交通局",
    "name": "大中二路、民族一路西北角",
    "city": "高雄市",
    "town": "左營區",
    "lon": 120.31875,
    "lat": 22.67932,
    "url": "https://traffic.tbkc.gov.tw/CCTV/cctv_view_atis.jsp?cctv_id=C000203&w=340&h=260"
  },
  {
    "id": "C616",
    "org": "各縣市交通局",
    "name": "中華一路與翠華路",
    "city": "高雄市",
    "town": "左營區",
    "lon": 120.2881,
    "lat": 22.66829,
    "url": "https://traffic.tbkc.gov.tw/CCTV/cctv_view_atis.jsp?cctv_id=C000314&w=340&h=260"
  },
  {
    "id": "C635",
    "org": "各縣市交通局",
    "name": "高楠公路(縱貫公路/高楠公路到高楠公路/民族一路)",
    "city": "高雄市",
    "town": "楠梓區",
    "lon": 120.32451,
    "lat": 22.70666,
    "url": "https://traffic.tbkc.gov.tw/CCTV/cctv_view_atis.jsp?cctv_id=C000052&w=340&h=260"
  },
  {
    "id": "C636",
    "org": "各縣市交通局",
    "name": "高楠公路(高楠公路/德民路到縱貫公路/高楠公路)",
    "city": "高雄市",
    "town": "楠梓區",
    "lon": 120.32207,
    "lat": 22.72572,
    "url": "https://traffic.tbkc.gov.tw/CCTV/cctv_view_atis.jsp?cctv_id=C000053&w=340&h=260"
  },
  {
    "id": "C639",
    "org": "各縣市交通局",
    "name": "加昌路(加昌路/後昌路到加昌路/右昌街)",
    "city": "高雄市",
    "town": "楠梓區",
    "lon": 120.29143,
    "lat": 22.71319,
    "url": "https://traffic.tbkc.gov.tw/CCTV/cctv_view_atis.jsp?cctv_id=C000088&w=340&h=260"
  },
  {
    "id": "C649",
    "org": "各縣市交通局",
    "name": "民族路(高雄)(民族一路(高雄)/大順一路到民族一路(高雄)/十全一路)",
    "city": "高雄市",
    "town": "三民區",
    "lon": 120.31482,
    "lat": 22.64767,
    "url": "https://traffic.tbkc.gov.tw/CCTV/cctv_view_atis.jsp?cctv_id=C000015&w=340&h=260"
  },
  {
    "id": "C650",
    "org": "各縣市交通局",
    "name": "民族路(高雄)(民族一路(高雄)/大順一路到民族一路(高雄)/十全一路)",
    "city": "高雄市",
    "town": "三民區",
    "lon": 120.31474,
    "lat": 22.64735,
    "url": "https://traffic.tbkc.gov.tw/CCTV/cctv_view_atis.jsp?cctv_id=C000016&w=340&h=260"
  },
  {
    "id": "C653",
    "org": "各縣市交通局",
    "name": "民族路(高雄)(民族一路(高雄)/九如二路到民族二路(高雄)/八德一路)",
    "city": "高雄市",
    "town": "三民區",
    "lon": 120.30876,
    "lat": 22.64504,
    "url": "https://traffic.tbkc.gov.tw/CCTV/cctv_view_atis.jsp?cctv_id=C000055&w=340&h=260"
  },
  {
    "id": "C654",
    "org": "各縣市交通局",
    "name": "民族路(高雄)(民族一路(高雄)/大中二路到民族一路(高雄)/裕誠路)",
    "city": "高雄市",
    "town": "三民區",
    "lon": 120.31705,
    "lat": 22.66824,
    "url": "https://traffic.tbkc.gov.tw/CCTV/cctv_view_atis.jsp?cctv_id=C000054&w=340&h=260"
  },
  {
    "id": "C698",
    "org": "各縣市交通局",
    "name": "中正路(中正五路/大公路到中正四路/成功一路)",
    "city": "高雄市",
    "town": "前金區",
    "lon": 120.28885,
    "lat": 22.62703,
    "url": "https://traffic.tbkc.gov.tw/CCTV/cctv_view_atis.jsp?cctv_id=C000109&w=340&h=260"
  },
  {
    "id": "C710",
    "org": "各縣市交通局",
    "name": "中山路(高雄)(中山二路/四維四路到中山三路/復興三路)",
    "city": "高雄市",
    "town": "苓雅區",
    "lon": 120.30458,
    "lat": 22.61394,
    "url": "https://traffic.tbkc.gov.tw/CCTV/cctv_view_atis.jsp?cctv_id=C000091&w=340&h=260"
  },
  {
    "id": "C717",
    "org": "各縣市交通局",
    "name": "中正一路、福德路東北角",
    "city": "高雄市",
    "town": "苓雅區",
    "lon": 120.32763,
    "lat": 22.62972,
    "url": "https://traffic.tbkc.gov.tw/CCTV/cctv_view_atis.jsp?cctv_id=C000228&w=340&h=260"
  },
  {
    "id": "C718",
    "org": "各縣市交通局",
    "name": "中正一路、輔仁路西南角",
    "city": "高雄市",
    "town": "苓雅區",
    "lon": 120.33235,
    "lat": 22.62799,
    "url": "https://traffic.tbkc.gov.tw/CCTV/cctv_view_atis.jsp?cctv_id=C000227&w=340&h=260"
  },
  {
    "id": "C739",
    "org": "各縣市交通局",
    "name": "中山四路、中平路西北角",
    "city": "高雄市",
    "town": "前鎮區",
    "lon": 120.32866,
    "lat": 22.58041,
    "url": "https://traffic.tbkc.gov.tw/CCTV/cctv_view_atis.jsp?cctv_id=C000221&w=340&h=260"
  },
  {
    "id": "C771",
    "org": "各縣市交通局",
    "name": "金福路(金福路/新生路到金福路/港壽街)",
    "city": "高雄市",
    "town": "前鎮區",
    "lon": 120.32853,
    "lat": 22.57106,
    "url": "https://traffic.tbkc.gov.tw/CCTV/cctv_view_atis.jsp?cctv_id=C000142&w=340&h=260"
  },
  {
    "id": "C787",
    "org": "各縣市交通局",
    "name": "中山路(高雄)(中山三路/光華三路到中山四路/五甲三路)",
    "city": "高雄市",
    "town": "前鎮區",
    "lon": 120.31567,
    "lat": 22.59579,
    "url": "https://traffic.tbkc.gov.tw/CCTV/cctv_view_atis.jsp?cctv_id=C000096&w=340&h=260"
  },
  {
    "id": "C793",
    "org": "各縣市交通局",
    "name": "成功路(成功二路/復興三路到成功二路/擴建路)",
    "city": "高雄市",
    "town": "前鎮區",
    "lon": 120.30485,
    "lat": 22.59571,
    "url": "https://traffic.tbkc.gov.tw/CCTV/cctv_view_atis.jsp?cctv_id=C000138&w=340&h=260"
  },
  {
    "id": "C799",
    "org": "各縣市交通局",
    "name": "旗津路(旗津二路/敦和街到旗津一路/廣澤街)",
    "city": "高雄市",
    "town": "旗津區",
    "lon": 120.29915,
    "lat": 22.57064,
    "url": "https://traffic.tbkc.gov.tw/CCTV/cctv_view_atis.jsp?cctv_id=C000144&w=340&h=260"
  },
  {
    "id": "C807",
    "org": "各縣市交通局",
    "name": "台 17(漢民路/沿海一路到蓮海路/沿海一路)",
    "city": "高雄市",
    "town": "小港區",
    "lon": 120.35241,
    "lat": 22.56645,
    "url": "https://traffic.tbkc.gov.tw/CCTV/cctv_view_atis.jsp?cctv_id=C000068&w=340&h=260"
  },
  {
    "id": "C820",
    "org": "各縣市交通局",
    "name": "台 1戊(建國一路/正義路到台 1戊/台 25)",
    "city": "高雄市",
    "town": "鳳山區",
    "lon": 120.33954,
    "lat": 22.62949,
    "url": "https://traffic.tbkc.gov.tw/CCTV/cctv_view_atis.jsp?cctv_id=C000156&w=340&h=260"
  },
  {
    "id": "C822",
    "org": "各縣市交通局",
    "name": "青年路二段與光復路一段",
    "city": "高雄市",
    "town": "鳳山區",
    "lon": 120.34925,
    "lat": 22.62923,
    "url": "https://traffic.tbkc.gov.tw/CCTV/cctv_view_atis.jsp?cctv_id=C000317&w=340&h=260"
  },
  {
    "id": "C832",
    "org": "各縣市交通局",
    "name": "澄清路與光復二段",
    "city": "高雄市",
    "town": "鳳山區",
    "lon": 120.34444,
    "lat": 22.62936,
    "url": "https://traffic.tbkc.gov.tw/CCTV/cctv_view_atis.jsp?cctv_id=C000316&w=340&h=260"
  },
  {
    "id": "C835",
    "org": "各縣市交通局",
    "name": "林園區-鳳林路一段與沿海路二段交岔路口",
    "city": "高雄市",
    "town": "林園區",
    "lon": 120.398,
    "lat": 22.50068,
    "url": "https://traffic.tbkc.gov.tw/CCTV/cctv_view_atis.jsp?cctv_id=C000267&w=340&h=260"
  },
  {
    "id": "C837",
    "org": "各縣市交通局",
    "name": "林園區-沿海路二段與王公路，東林西路交岔路口",
    "city": "高雄市",
    "town": "林園區",
    "lon": 120.38175,
    "lat": 22.50343,
    "url": "https://traffic.tbkc.gov.tw/CCTV/cctv_view_atis.jsp?cctv_id=C000269&w=340&h=260"
  },
  {
    "id": "C853",
    "org": "各縣市交通局",
    "name": "鳳山區-鳳屏一路、九和路西側",
    "city": "高雄市",
    "town": "大寮區",
    "lon": 120.41707,
    "lat": 22.64186,
    "url": "https://traffic.tbkc.gov.tw/CCTV/cctv_view_atis.jsp?cctv_id=C000189&w=340&h=260"
  },
  {
    "id": "C875",
    "org": "各縣市交通局",
    "name": "楠梓區-鳳仁路與水管路交岔路口",
    "city": "高雄市",
    "town": "仁武區",
    "lon": 120.34212,
    "lat": 22.70619,
    "url": "https://traffic.tbkc.gov.tw/CCTV/cctv_view_atis.jsp?cctv_id=C000273&w=340&h=260"
  },
  {
    "id": "C876",
    "org": "各縣市交通局",
    "name": "仁武區-鳳仁路與澄觀路交岔路口",
    "city": "高雄市",
    "town": "仁武區",
    "lon": 120.35291,
    "lat": 22.686,
    "url": "https://traffic.tbkc.gov.tw/CCTV/cctv_view_atis.jsp?cctv_id=C000272&w=340&h=260"
  },
  {
    "id": "C879",
    "org": "各縣市交通局",
    "name": "鳥松區-大埤路與長庚路交岔路口",
    "city": "高雄市",
    "town": "鳥松區",
    "lon": 120.35605,
    "lat": 22.65116,
    "url": "https://traffic.tbkc.gov.tw/CCTV/cctv_view_atis.jsp?cctv_id=C000276&w=340&h=260"
  },
  {
    "id": "C880",
    "org": "各縣市交通局",
    "name": "本館路、球場路東南角",
    "city": "高雄市",
    "town": "鳥松區",
    "lon": 120.33615,
    "lat": 22.65544,
    "url": "https://traffic.tbkc.gov.tw/CCTV/cctv_view_atis.jsp?cctv_id=C000210&w=340&h=260"
  },
  {
    "id": "C884",
    "org": "各縣市交通局",
    "name": "鳥松區-中正路與大埤路，神農路交岔路口",
    "city": "高雄市",
    "town": "鳥松區",
    "lon": 120.36414,
    "lat": 22.65932,
    "url": "https://traffic.tbkc.gov.tw/CCTV/cctv_view_atis.jsp?cctv_id=C000274&w=340&h=260"
  },
  {
    "id": "C886",
    "org": "各縣市交通局",
    "name": "縣 181(八德路433巷/青年路二段到八德路433巷/青年路二段)",
    "city": "高雄市",
    "town": "鳥松區",
    "lon": 120.34664,
    "lat": 22.64785,
    "url": "https://traffic.tbkc.gov.tw/CCTV/cctv_view_atis.jsp?cctv_id=C000158&w=340&h=260"
  },
  {
    "id": "C900",
    "org": "各縣市交通局",
    "name": "台 1(台 1/台 19甲到中山北路/大德一路)",
    "city": "高雄市",
    "town": "岡山區",
    "lon": 120.2946,
    "lat": 22.79966,
    "url": "https://traffic.tbkc.gov.tw/CCTV/cctv_view_atis.jsp?cctv_id=C000162&w=340&h=260"
  },
  {
    "id": "C904",
    "org": "各縣市交通局",
    "name": "橋頭區-成功北路鐵道北路口",
    "city": "高雄市",
    "town": "橋頭區",
    "lon": 120.30592,
    "lat": 22.76687,
    "url": "https://traffic.tbkc.gov.tw/CCTV/cctv_view_atis.jsp?cctv_id=C000235&w=340&h=260"
  },
  {
    "id": "C906",
    "org": "各縣市交通局",
    "name": "台 22(縣186/中正路到燕巢交流道)",
    "city": "高雄市",
    "town": "燕巢區",
    "lon": 120.3678,
    "lat": 22.76075,
    "url": "https://traffic.tbkc.gov.tw/CCTV/cctv_view_atis.jsp?cctv_id=C700011&w=340&h=260"
  },
  {
    "id": "C907",
    "org": "各縣市交通局",
    "name": "岡山區-介壽東路國一岡山交流道北入口",
    "city": "高雄市",
    "town": "燕巢區",
    "lon": 120.32159,
    "lat": 22.78809,
    "url": "https://traffic.tbkc.gov.tw/CCTV/cctv_view_atis.jsp?cctv_id=C000236&w=340&h=260"
  },
  {
    "id": "C910",
    "org": "各縣市交通局",
    "name": "湖內區-中山路二段中華街口",
    "city": "高雄市",
    "town": "湖內區",
    "lon": 120.22713,
    "lat": 22.90927,
    "url": "https://traffic.tbkc.gov.tw/CCTV/cctv_view_atis.jsp?cctv_id=C000246&w=340&h=260"
  },
  {
    "id": "C917",
    "org": "各縣市交通局",
    "name": "梓官區-大舍南路大舍東路口",
    "city": "高雄市",
    "town": "梓官區",
    "lon": 120.26143,
    "lat": 22.74713,
    "url": "https://traffic.tbkc.gov.tw/CCTV/cctv_view_atis.jsp?cctv_id=C000251&w=340&h=260"
  },
  {
    "id": "C937",
    "org": "各縣市交通局",
    "name": "板橋區中山路1段、158巷",
    "city": "新北市",
    "town": "板橋區",
    "lon": 121.466006,
    "lat": 25.012016,
    "url": "https://atis.ntpc.gov.tw/ATIS/ShowFrame4CCTV/C000025"
  },
  {
    "id": "C962",
    "org": "各縣市交通局",
    "name": "板橋區浮洲橋上(路燈桿上)，環河道路上方近樹林",
    "city": "新北市",
    "town": "板橋區",
    "lon": 121.435241,
    "lat": 24.995423,
    "url": "https://atis.ntpc.gov.tw/ATIS/ShowFrame4CCTV/C000131"
  },
  {
    "id": "C1009",
    "org": "各縣市交通局",
    "name": "中和區中山路、漢民路口(南側號誌桿上)",
    "city": "新北市",
    "town": "中和區",
    "lon": 121.472415,
    "lat": 25.006517,
    "url": "https://atis.ntpc.gov.tw/ATIS/ShowFrame4CCTV/C000140"
  },
  {
    "id": "C1010",
    "org": "各縣市交通局",
    "name": "中和區中山路、民有街口",
    "city": "新北市",
    "town": "中和區",
    "lon": 121.475561,
    "lat": 25.005852,
    "url": "https://atis.ntpc.gov.tw/ATIS/ShowFrame4CCTV/C000292"
  },
  {
    "id": "C1037",
    "org": "各縣市交通局",
    "name": "新莊區中正路、建國一路",
    "city": "新北市",
    "town": "新莊區",
    "lon": 121.43363,
    "lat": 25.03244,
    "url": "https://atis.ntpc.gov.tw/ATIS/ShowFrame4CCTV/C000253"
  },
  {
    "id": "C1079",
    "org": "各縣市交通局",
    "name": "鶯歌區中山高架橋、西湖街",
    "city": "新北市",
    "town": "鶯歌區",
    "lon": 121.34027,
    "lat": 24.95819,
    "url": "https://atis.ntpc.gov.tw/ATIS/ShowFrame4CCTV/C000222"
  },
  {
    "id": "C1134",
    "org": "各縣市交通局",
    "name": "蘆洲區永安南路、中山一路",
    "city": "新北市",
    "town": "蘆洲區",
    "lon": 121.4683628,
    "lat": 25.07638698,
    "url": "https://atis.ntpc.gov.tw/ATIS/ShowFrame4CCTV/C000071"
  },
  {
    "id": "C1198",
    "org": "各縣市交通局",
    "name": "台 4(春日路/南平路到春日路/福山街)",
    "city": "桃園市",
    "town": "桃園區",
    "lon": 121.30911,
    "lat": 25.01535,
    "url": "https://cctvtraffic.tycg.gov.tw/camera055/"
  },
  {
    "id": "C1210",
    "org": "各縣市交通局",
    "name": "縣 110(春日路/成功路二段到春日路/復興路)",
    "city": "桃園市",
    "town": "桃園區",
    "lon": 121.31664,
    "lat": 24.99408,
    "url": "https://cctvtraffic.tycg.gov.tw/camera057/"
  },
  {
    "id": "C1214",
    "org": "各縣市交通局",
    "name": "台 4(台 4/台 1甲到介壽路/三民路三段)",
    "city": "桃園市",
    "town": "桃園區",
    "lon": 121.3074,
    "lat": 24.98497,
    "url": "https://cctvtraffic.tycg.gov.tw/camera038/"
  },
  {
    "id": "C1232",
    "org": "各縣市交通局",
    "name": "桃 49(國際路二段/文中路到桃53-1/大興西路三段)",
    "city": "桃園市",
    "town": "桃園區",
    "lon": 121.27808,
    "lat": 24.99371,
    "url": "https://cctvtraffic.tycg.gov.tw/camera110/"
  },
  {
    "id": "C1238",
    "org": "各縣市交通局",
    "name": "縣 110(春日路/復興路到桃鶯路/大明路)",
    "city": "桃園市",
    "town": "桃園區",
    "lon": 121.31797,
    "lat": 24.98601,
    "url": "https://cctvtraffic.tycg.gov.tw/camera058/"
  },
  {
    "id": "C1239",
    "org": "各縣市交通局",
    "name": "桃園市政府",
    "city": "桃園市",
    "town": "桃園區",
    "lon": 121.31638,
    "lat": 25.01673,
    "url": "https://cctvtraffic.tycg.gov.tw/camera130/"
  },
  {
    "id": "C1241",
    "org": "各縣市交通局",
    "name": "台 1(中山路/龍壽街到中山路/中山路904巷)",
    "city": "桃園市",
    "town": "桃園區",
    "lon": 121.2822,
    "lat": 24.98682,
    "url": "https://cctvtraffic.tycg.gov.tw/camera044/"
  },
  {
    "id": "C1245",
    "org": "各縣市交通局",
    "name": "桃園市政府",
    "city": "桃園市",
    "town": "中壢區",
    "lon": 121.24127,
    "lat": 24.96618,
    "url": "https://cctvtraffic.tycg.gov.tw/camera133/"
  },
  {
    "id": "C1249",
    "org": "各縣市交通局",
    "name": "桃園市政府",
    "city": "桃園市",
    "town": "中壢區",
    "lon": 121.24915,
    "lat": 24.95789,
    "url": "https://cctvtraffic.tycg.gov.tw/camera132/"
  },
  {
    "id": "C1263",
    "org": "各縣市交通局",
    "name": "縣 114(中山東路一段/新中北路到金峰二街/金峰二街)",
    "city": "桃園市",
    "town": "中壢區",
    "lon": 121.23559,
    "lat": 24.95558,
    "url": "https://cctvtraffic.tycg.gov.tw/camera074/"
  },
  {
    "id": "C1269",
    "org": "各縣市交通局",
    "name": "台 1(縣113/環北路到延平路90巷/福壽一街)",
    "city": "桃園市",
    "town": "中壢區",
    "lon": 121.22579,
    "lat": 24.96578,
    "url": "https://cctvtraffic.tycg.gov.tw/camera029/"
  },
  {
    "id": "C1303",
    "org": "各縣市交通局",
    "name": "台 4(中正路/忠孝西路到桃園交流道)",
    "city": "桃園市",
    "town": "蘆竹區",
    "lon": 121.29585,
    "lat": 25.0456,
    "url": "https://cctvtraffic.tycg.gov.tw/camera098/"
  },
  {
    "id": "C1304",
    "org": "各縣市交通局",
    "name": "台 4(春日路/有恆街到桃園交流道)",
    "city": "桃園市",
    "town": "蘆竹區",
    "lon": 121.30116,
    "lat": 25.03406,
    "url": "https://cctvtraffic.tycg.gov.tw/camera126/"
  },
  {
    "id": "C1309",
    "org": "各縣市交通局",
    "name": "台 31(台 31/中正東路到大竹交流道)",
    "city": "桃園市",
    "town": "大園區",
    "lon": 121.23075,
    "lat": 25.0291,
    "url": "https://cctvtraffic.tycg.gov.tw/camera128/"
  },
  {
    "id": "C1310",
    "org": "各縣市交通局",
    "name": "縣 110(民生路/中正東路到大園交流道)",
    "city": "桃園市",
    "town": "大園區",
    "lon": 121.20352,
    "lat": 25.06161,
    "url": "https://cctvtraffic.tycg.gov.tw/camera104/"
  },
  {
    "id": "C1324",
    "org": "各縣市交通局",
    "name": "台 1(中正路/宏慶街到台 1/台 1甲)",
    "city": "桃園市",
    "town": "龜山區",
    "lon": 121.4084,
    "lat": 25.01886,
    "url": "https://cctvtraffic.tycg.gov.tw/camera122/"
  },
  {
    "id": "C1326",
    "org": "各縣市交通局",
    "name": "縣 114(興豐路1906巷/其他道路到興豐路2345巷/興豐路)",
    "city": "桃園市",
    "town": "八德區",
    "lon": 121.32591,
    "lat": 24.96301,
    "url": "https://cctvtraffic.tycg.gov.tw/camera082/"
  },
  {
    "id": "C1330",
    "org": "各縣市交通局",
    "name": "台 4(介壽路一段/思源街到介壽路一段/廣福路)",
    "city": "桃園市",
    "town": "八德區",
    "lon": 121.29925,
    "lat": 24.95764,
    "url": "https://cctvtraffic.tycg.gov.tw/camera079/"
  },
  {
    "id": "C1334",
    "org": "各縣市交通局",
    "name": "縣 113乙(龍潭交流道到大昌路二段/中興路)",
    "city": "桃園市",
    "town": "龍潭區",
    "lon": 121.22286,
    "lat": 24.8646,
    "url": "https://cctvtraffic.tycg.gov.tw/camera108/"
  },
  {
    "id": "C1343",
    "org": "各縣市交通局",
    "name": "桃園市政府",
    "city": "桃園市",
    "town": "平鎮區",
    "lon": 121.21129,
    "lat": 24.91985,
    "url": "https://cctvtraffic.tycg.gov.tw/camera134/"
  },
  {
    "id": "C1345",
    "org": "各縣市交通局",
    "name": "台 1(縣110甲/忠義路到環南路二段/環南路二段)",
    "city": "桃園市",
    "town": "平鎮區",
    "lon": 121.2085,
    "lat": 24.94496,
    "url": "https://cctvtraffic.tycg.gov.tw/camera073/"
  },
  {
    "id": "C1353",
    "org": "各縣市交通局",
    "name": "桃園市政府",
    "city": "桃園市",
    "town": "新屋區",
    "lon": 121.0307,
    "lat": 24.98882,
    "url": "https://cctvtraffic.tycg.gov.tw/camera155/"
  },
  {
    "id": "C1464",
    "org": "各縣市交通局",
    "name": "沿海路－船頭路",
    "city": "屏東縣",
    "town": "東港鎮",
    "lon": 120.4621,
    "lat": 22.46274,
    "url": "https://59.120.122.56/play/live.php?camera=19&fps=&L=20f44a0b190b6ebee2accf6e10d6ace3&1597658173199"
  },
  {
    "id": "C1466",
    "org": "各縣市交通局",
    "name": "台17東港大橋",
    "city": "屏東縣",
    "town": "東港鎮",
    "lon": 120.4602,
    "lat": 22.47709,
    "url": "https://59.120.122.56/play/live.php?camera=16&fps=&L=20f44a0b190b6ebee2accf6e10d6ace3&1597658808219"
  },
  {
    "id": "KH01",
    "org": "淹水感測器自建鏡頭",
    "name": "美濃區_美濃浸信會",
    "city": "高雄市",
    "town": "美濃區",
    "lon": 120.550554,
    "lat": 22.898275,
    "url": "https://device.senslink.net/v3/sensmini/images/68e0221b-cfc2-87bf-4454-a77c14b1e64a?tag=%E6%B5%B8%E4%BF%A1%E6%9C%83&timezone=480"
  },
  {
    "id": "KH02",
    "org": "淹水感測器自建鏡頭",
    "name": "美濃區_中正一路",
    "city": "高雄市",
    "town": "美濃區",
    "lon": 120.54183,
    "lat": 22.90036,
    "url": "https://device.senslink.net/v3/sensmini/images/fce7365f-88c4-9809-8633-8f6e1380d0e7?tag=%E4%B8%AD%E6%AD%A3%E4%B8%80%E8%B7%AF&timeZone=480"
  },
  {
    "id": "KH03",
    "org": "淹水感測器自建鏡頭",
    "name": "美濃區_天后宮",
    "city": "高雄市",
    "town": "美濃區",
    "lon": 120.53998,
    "lat": 22.89857,
    "url": "https://device.senslink.net/v3/sensmini/images/dd171597-6f0a-b0c6-a34f-f881cfb96f39?tag=%E7%BE%8E%E6%BF%83%E5%8D%80_%E5%A4%A9%E5%90%8E%E5%AE%AE&timeZone=480"
  },
  {
    "id": "KH04",
    "org": "淹水感測器自建鏡頭",
    "name": "旗山區_中南街",
    "city": "高雄市",
    "town": "旗山區",
    "lon": 120.46973,
    "lat": 22.8422,
    "url": "https://device.senslink.net/v3/sensmini/images/5b522dbf-c95e-9ed3-70ca-d5561420e578?tag=%20%E4%B8%AD%E5%8D%97%E8%A1%97timezone=480"
  },
  {
    "id": "KH05",
    "org": "淹水感測器自建鏡頭",
    "name": "旗山區_石岩寺",
    "city": "高雄市",
    "town": "旗山區",
    "lon": 120.46482,
    "lat": 22.83931,
    "url": "https://device.senslink.net/v3/sensmini/images/cf1de765-cbe7-0abe-965e-000f36c0e8b8?tag=%E7%9F%B3%E5%B2%A9%E5%AF%BA&timeZone=480"
  },
  {
    "id": "PT001",
    "org": "淹水感測器自建鏡頭",
    "name": "東港鎮_東港派出所",
    "city": "屏東縣",
    "town": "東港鎮",
    "lon": 120.46308,
    "lat": 22.46569,
    "url": "https://device.senslink.net/v3/sensmini/images/75170a53-9ec5-680d-49f5-d92ed73c4a92?tag=%20%E6%9D%B1%E6%B8%AF%E6%B4%BE%E5%87%BA%E6%89%80%20timezone=480"
  },
  {
    "id": "PT002",
    "org": "淹水感測器自建鏡頭",
    "name": "東港鎮_東隆宮",
    "city": "屏東縣",
    "town": "東港鎮",
    "lon": 120.44873,
    "lat": 22.46473,
    "url": "https://device.senslink.net/v3/sensmini/images/48cd6d6a-2ab8-9e52-6715-b2ba98e0c222?tag=%E6%9D%B1%E9%9A%86%E5%AE%AE&timeZone=480"
  },
  {
    "id": "PT003",
    "org": "淹水感測器自建鏡頭",
    "name": "枋寮鄉_枋寮高中",
    "city": "屏東縣",
    "town": "枋寮鄉",
    "lon": 120.59133,
    "lat": 22.36977,
    "url": "https://device.senslink.net/v3/sensmini/images/054be5b0-6fea-d83d-f104-897743638adc?tag=%E6%9E%8B%E5%AF%AE%E9%AB%98%E4%B8%AD&timeZone=480"
  },
  {
    "id": "PT004",
    "org": "淹水感測器自建鏡頭",
    "name": "枋寮鄉_義民路",
    "city": "屏東縣",
    "town": "枋寮鄉",
    "lon": 120.5817,
    "lat": 22.3771,
    "url": "https://device.senslink.net/v3/sensmini/images/f6cb7ea2-31c7-c589-e9fd-12ec3e6d23a1?tag=%E7%BE%A9%E6%B0%91%E8%B7%AF&timezone=480"
  },
  {
    "id": "PT005",
    "org": "淹水感測器自建鏡頭",
    "name": "恆春鎮_湖內路",
    "city": "屏東縣",
    "town": "恆春鎮",
    "lon": 120.74743,
    "lat": 21.99188,
    "url": "https://device.senslink.net/v3/sensmini/images/781416b4-3589-6983-1efc-8f1dfa393445?tag=%E6%81%86%E6%98%A5%E9%8E%AE_%E6%B9%96%E5%85%A7%E8%B7%AF&timezone=480"
  },
  {
    "id": "PT006",
    "org": "淹水感測器自建鏡頭",
    "name": "恆春鎮_恆南路",
    "city": "屏東縣",
    "town": "恆春鎮",
    "lon": 120.74548,
    "lat": 21.99593,
    "url": "https://device.senslink.net/v3/sensmini/images/4d109566-2014-20ba-aaa4-eb264ff092d1?tag=%E6%81%86%E5%8D%97%E8%B7%AF&timeZone=480"
  },
  {
    "id": "PT007",
    "org": "淹水感測器自建鏡頭",
    "name": "長治鄉_神農路",
    "city": "屏東縣",
    "town": "長治鄉",
    "lon": 120.53663,
    "lat": 22.70765,
    "url": "https://device.senslink.net/v3/sensmini/images/cb0f6b82-bcdf-b1dc-acf8-c3b3145121fe?tag=%E9%95%B7%E6%B2%BB%E9%84%89_%E7%A5%9E%E8%BE%B2%E8%B7%AF&timeZone=480"
  },
  {
    "id": "PT008",
    "org": "淹水感測器自建鏡頭",
    "name": "長治鄉_繁華郵局",
    "city": "屏東縣",
    "town": "長治鄉",
    "lon": 120.57317,
    "lat": 22.70216,
    "url": "https://device.senslink.net/v3/sensmini/images/30fde687-de39-10d8-8121-707f1451243d?tag=%E9%95%B7%E6%B2%BB%E9%84%89_%E7%B9%81%E8%8F%AF%E9%83%B5%E5%B1%80&timeZone=480"
  },
  {
    "id": "PT009",
    "org": "淹水感測器自建鏡頭",
    "name": "佳冬鄉_焰溫村炯興路",
    "city": "屏東縣",
    "town": "佳冬鄉",
    "lon": 120.52314,
    "lat": 22.42236,
    "url": "https://device.senslink.net/v3/sensmini/images/43ed5c65-9160-560b-7287-263d1450f4c2?tag=%E4%BD%B3%E5%86%AC%E9%84%89_%E7%84%B0%E6%BA%AB%E6%9D%91%E7%82%AF%E8%88%88%E8%B7%AF&timeZone=480"
  },
  {
    "id": "PT010",
    "org": "淹水感測器自建鏡頭",
    "name": "佳冬鄉_塭仔一號排水",
    "city": "屏東縣",
    "town": "佳冬鄉",
    "lon": 120.53425,
    "lat": 22.42575,
    "url": "https://device.senslink.net/v3/sensmini/images/55a3287f-a888-b360-de26-01741450f43e?tag=%E4%BD%B3%E5%86%AC%E9%84%89_%E5%A1%AD%E4%BB%94%E4%B8%80%E8%99%9F%E6%8E%92%E6%B0%B4&timeZone=480"
  },
  {
    "id": "PT011",
    "org": "淹水感測器自建鏡頭",
    "name": "南州鄉_同安國小",
    "city": "屏東縣",
    "town": "南州鄉",
    "lon": 120.52233,
    "lat": 22.47231,
    "url": "https://device.senslink.net/v3/sensmini/images/c97f8900-c087-a7a9-7424-77c6153184ac?tag=%E5%8D%97%E5%B7%9E%E9%84%89_%E5%90%8C%E5%AE%89%E5%9C%8B%E5%B0%8F&timeZone=480"
  },
  {
    "id": "PT012",
    "org": "淹水感測器自建鏡頭",
    "name": "林邊鄉_仁鵬遊湖公司",
    "city": "屏東縣",
    "town": "林邊鄉",
    "lon": 120.50007,
    "lat": 22.45178,
    "url": "https://device.senslink.net/v3/sensmini/images/8edd9d26-938d-0dfb-62ac-825b14512193?tag=%E6%9E%97%E9%82%8A%E9%84%89_%E4%BB%81%E9%B5%AC%E9%81%8A%E6%B9%96%E5%85%AC%E5%8F%B8&timeZone=480"
  },
  {
    "id": "PT013",
    "org": "淹水感測器自建鏡頭",
    "name": "林邊鄉_中林路水源地",
    "city": "屏東縣",
    "town": "林邊鄉",
    "lon": 120.5202004,
    "lat": 22.4384553,
    "url": "https://device.senslink.net/v3/sensmini/images/228edad1-c07f-c7d6-70fe-a25f1451208f?tag=%E6%9E%97%E9%82%8A%E9%84%89_%E4%B8%AD%E6%9E%97%E8%B7%AF%E6%B0%B4%E6%BA%90%E5%9C%B0&timeZone=480"
  },
  {
    "id": "PT014",
    "org": "淹水感測器自建鏡頭",
    "name": "林邊鄉_林邊郵局",
    "city": "屏東縣",
    "town": "林邊鄉",
    "lon": 120.51623,
    "lat": 22.43345,
    "url": "https://device.senslink.net/v3/sensmini/images/e49963be-57ea-d097-e535-b5831450f584?tag=%E6%9E%97%E9%82%8A%E9%84%89_%E6%9E%97%E9%82%8A%E9%83%B5%E5%B1%80&timeZone=480"
  },
  {
    "id": "PT015",
    "org": "淹水感測器自建鏡頭",
    "name": "枋寮鄉_德聖路",
    "city": "屏東縣",
    "town": "枋寮鄉",
    "lon": 120.55249,
    "lat": 22.39471,
    "url": "https://device.senslink.net/v3/sensmini/images/b171dcc8-7336-e679-e05c-60371450e59b?tag=%E6%9E%8B%E5%AF%AE%E9%84%89_%E5%BE%B7%E8%81%96%E8%B7%AF&timeZone=480"
  },
  {
    "id": "PT016",
    "org": "淹水感測器自建鏡頭",
    "name": "枋寮鄉_隆安幼兒園",
    "city": "屏東縣",
    "town": "枋寮鄉",
    "lon": 120.60444,
    "lat": 22.36268,
    "url": "https://device.senslink.net/v3/sensmini/images/c4163872-a348-c8f0-725a-494d14506490?tag=%E6%9E%8B%E5%AF%AE%E9%84%89_%E9%9A%86%E5%AE%89%E5%B9%BC%E5%85%92%E5%9C%92&timeZone=480"
  },
  {
    "id": "YL001",
    "org": "淹水感測器自建鏡頭",
    "name": "榴南里_南仁寺",
    "city": "雲林縣",
    "town": "斗六市",
    "lon": 120.5876648,
    "lat": 23.7132704,
    "url": "https://iapi.wra.gov.tw/v3/api/Image/17a6b9fe-3b43-4ecb-a8bd-6da3851e4960"
  },
  {
    "id": "YL002",
    "org": "淹水感測器自建鏡頭",
    "name": "中山里_德興路",
    "city": "雲林縣",
    "town": "虎尾鎮",
    "lon": 120.431974,
    "lat": 23.7083409,
    "url": "https://iapi.wra.gov.tw/v3/api/Image/fdaf744a-97b2-431a-acbf-863d712f7194"
  },
  {
    "id": "YL003",
    "org": "淹水感測器自建鏡頭",
    "name": "台子村_地藏庵",
    "city": "雲林縣",
    "town": "口湖鄉",
    "lon": 120.140902,
    "lat": 23.558901,
    "url": "https://iapi.wra.gov.tw/v3/api/Image/3743765c-231d-409b-b9ed-cfa170b1bd1b"
  },
  {
    "id": "YL004",
    "org": "淹水感測器自建鏡頭",
    "name": "龍潭里_龍潭路37號",
    "city": "雲林縣",
    "town": "斗六市",
    "lon": 120.527891,
    "lat": 23.68995003,
    "url": "https://iapi.wra.gov.tw/v3/api/Image/707fb92a-396c-4238-ba58-32c0c98fe41e"
  },
  {
    "id": "YL005",
    "org": "淹水感測器自建鏡頭",
    "name": "中和里_南仁路與石榴路路口",
    "city": "雲林縣",
    "town": "斗六市",
    "lon": 120.58338,
    "lat": 23.72216997,
    "url": "https://iapi.wra.gov.tw/v3/api/Image/28356d6b-71e2-4c2f-9fe6-76bdfdd7c216"
  },
  {
    "id": "YL006",
    "org": "淹水感測器自建鏡頭",
    "name": "西鎮村_廣福宮",
    "city": "雲林縣",
    "town": "大埤鄉",
    "lon": 120.384229,
    "lat": 23.621961,
    "url": "https://iapi.wra.gov.tw/v3/api/Image/fc55725b-a73a-4e69-8ff3-01a37947bd23"
  },
  {
    "id": "YL007",
    "org": "淹水感測器自建鏡頭",
    "name": "埔南村_興南國小",
    "city": "雲林縣",
    "town": "口湖鄉",
    "lon": 120.191301,
    "lat": 23.599943,
    "url": "https://iapi.wra.gov.tw/v3/api/Image/ec70c13d-15d7-4828-96e2-64d0ded30932"
  },
  {
    "id": "YL008",
    "org": "淹水感測器自建鏡頭",
    "name": "褒忠鄉_有才橋",
    "city": "雲林縣",
    "town": "褒忠鄉",
    "lon": 120.2900261,
    "lat": 23.7202074,
    "url": "https://iapi.wra.gov.tw/v3/api/Image/f5c073ad-7af0-49e8-8b8c-d918412b9ed0"
  },
  {
    "id": "YL009",
    "org": "淹水感測器自建鏡頭",
    "name": "港西村_中正路3-23號",
    "city": "雲林縣",
    "town": "口湖鄉",
    "lon": 120.147832,
    "lat": 23.575772,
    "url": "https://iapi.wra.gov.tw/v3/api/Image/f9fc2857-073d-4f02-926a-572711880e63"
  },
  {
    "id": "YL010",
    "org": "淹水感測器自建鏡頭",
    "name": "埒內里_三姓公廟",
    "city": "雲林縣",
    "town": "虎尾鎮",
    "lon": 120.446879,
    "lat": 23.718071,
    "url": "https://iapi.wra.gov.tw/v3/api/Image/f2319e4a-c827-4d0f-b004-28219a100164"
  },
  {
    "id": "YL011",
    "org": "淹水感測器自建鏡頭",
    "name": "榴中里_光復路75巷",
    "city": "雲林縣",
    "town": "斗六市",
    "lon": 120.58678,
    "lat": 23.72319999,
    "url": "https://iapi.wra.gov.tw/v3/api/Image/d7d8ce91-e6bb-46b4-b7ff-ad6013b86693"
  },
  {
    "id": "YL012",
    "org": "淹水感測器自建鏡頭",
    "name": "平和里_光復路與成和街口",
    "city": "雲林縣",
    "town": "虎尾鎮",
    "lon": 120.44655,
    "lat": 23.70935002,
    "url": "https://iapi.wra.gov.tw/v3/api/Image/0742b5fe-1df6-4547-afb6-8e8b612fc552"
  },
  {
    "id": "YL013",
    "org": "淹水感測器自建鏡頭",
    "name": "延平里_福安宮",
    "city": "雲林縣",
    "town": "虎尾鎮",
    "lon": 120.42075,
    "lat": 23.68817,
    "url": "https://iapi.wra.gov.tw/v3/api/Image/0924532e-38e0-4e98-9d8c-8d0bd28c516b"
  },
  {
    "id": "V1770718",
    "org": "淹水感測器自建鏡頭",
    "name": "善化區光復路368號旁",
    "city": "臺南市",
    "town": "善化區",
    "lon": 120.287222,
    "lat": 23.127861,
    "url": "https://sfpn.tainan.gov.tw/TainanFloodSmartWeb/ShowCameraImages/ViewCameraImage.aspx?CameraID=V1770718"
  },
  {
    "id": "V1770706",
    "org": "淹水感測器自建鏡頭",
    "name": "永康區蔦松三街147巷36號",
    "city": "臺南市",
    "town": "永康區",
    "lon": 120.257633,
    "lat": 23.0489,
    "url": "https://sfpn.tainan.gov.tw/TainanFloodSmartWeb/ShowCameraImages/ViewCameraImage.aspx?CameraID=V1770706"
  },
  {
    "id": "V1770712",
    "org": "淹水感測器自建鏡頭",
    "name": "龍山里活動中心旁電杆",
    "city": "臺南市",
    "town": "七股區",
    "lon": 120.114853,
    "lat": 23.137498,
    "url": "https://sfpn.tainan.gov.tw/TainanFloodSmartWeb/ShowCameraImages/ViewCameraImage.aspx?CameraID=V1770712"
  },
  {
    "id": "V1770719",
    "org": "淹水感測器自建鏡頭",
    "name": "善化區大成路348號旁",
    "city": "臺南市",
    "town": "善化區",
    "lon": 120.297139,
    "lat": 23.129639,
    "url": "https://sfpn.tainan.gov.tw/TainanFloodSmartWeb/ShowCameraImages/ViewCameraImage.aspx?CameraID=V1770719"
  },
  {
    "id": "V1770717",
    "org": "淹水感測器自建鏡頭",
    "name": "永康區南工街347號",
    "city": "臺南市",
    "town": "永康區",
    "lon": 120.236333,
    "lat": 23.013944,
    "url": "https://sfpn.tainan.gov.tw/TainanFloodSmartWeb/ShowCameraImages/ViewCameraImage.aspx?CameraID=V1770717"
  },
  {
    "id": "V1770713",
    "org": "淹水感測器自建鏡頭",
    "name": "麻豆區永安宮前",
    "city": "臺南市",
    "town": "麻豆區",
    "lon": 120.227908,
    "lat": 23.196039,
    "url": "https://sfpn.tainan.gov.tw/TainanFloodSmartWeb/ShowCameraImages/ViewCameraImage.aspx?CameraID=V1770713"
  },
  {
    "id": "V1770708",
    "org": "淹水感測器自建鏡頭",
    "name": "安南區朝皇宮前電杆",
    "city": "臺南市",
    "town": "安南區",
    "lon": 120.184176,
    "lat": 23.040378,
    "url": "https://sfpn.tainan.gov.tw/TainanFloodSmartWeb/ShowCameraImages/ViewCameraImage.aspx?CameraID=V1770708"
  },
  {
    "id": "V1770714",
    "org": "淹水感測器自建鏡頭",
    "name": "仁德區文華一街93號斜對面(醫專幹#41)",
    "city": "臺南市",
    "town": "仁德區",
    "lon": 120.243068,
    "lat": 22.960808,
    "url": "https://sfpn.tainan.gov.tw/TainanFloodSmartWeb/ShowCameraImages/ViewCameraImage.aspx?CameraID=V1770714"
  },
  {
    "id": "V1770707",
    "org": "淹水感測器自建鏡頭",
    "name": "安南區公親里公學路1段262巷",
    "city": "臺南市",
    "town": "安南區",
    "lon": 120.198353,
    "lat": 23.077192,
    "url": "https://sfpn.tainan.gov.tw/TainanFloodSmartWeb/ShowCameraImages/ViewCameraImage.aspx?CameraID=V1770707"
  },
  {
    "id": "V1770704",
    "org": "淹水感測器自建鏡頭",
    "name": "永康區大灣路896巷17號",
    "city": "臺南市",
    "town": "永康區",
    "lon": 120.256317,
    "lat": 23.000564,
    "url": "https://sfpn.tainan.gov.tw/TainanFloodSmartWeb/ShowCameraImages/ViewCameraImage.aspx?CameraID=V1770704"
  },
  {
    "id": "V1770705",
    "org": "淹水感測器自建鏡頭",
    "name": "永康區中正南路316號",
    "city": "臺南市",
    "town": "永康區",
    "lon": 120.2267,
    "lat": 23.031347,
    "url": "https://sfpn.tainan.gov.tw/TainanFloodSmartWeb/ShowCameraImages/ViewCameraImage.aspx?CameraID=V1770705"
  },
  {
    "id": "V1770709",
    "org": "淹水感測器自建鏡頭",
    "name": "安南區頂安里長溪路一段408-1號旁",
    "city": "臺南市",
    "town": "安南區",
    "lon": 120.205729,
    "lat": 23.040072,
    "url": "https://sfpn.tainan.gov.tw/TainanFloodSmartWeb/ShowCameraImages/ViewCameraImage.aspx?CameraID=V1770709"
  },
  {
    "id": "V1770710",
    "org": "淹水感測器自建鏡頭",
    "name": "新化區知義里新和庄8之3號",
    "city": "臺南市",
    "town": "新化區",
    "lon": 120.328794,
    "lat": 23.023511,
    "url": "https://sfpn.tainan.gov.tw/TainanFloodSmartWeb/ShowCameraImages/ViewCameraImage.aspx?CameraID=V1770710"
  },
  {
    "id": "V1770716",
    "org": "淹水感測器自建鏡頭",
    "name": "永康區復國里復國二路202號前",
    "city": "臺南市",
    "town": "永康區",
    "lon": 120.248333,
    "lat": 23.012278,
    "url": "https://sfpn.tainan.gov.tw/TainanFloodSmartWeb/ShowCameraImages/ViewCameraImage.aspx?CameraID=V1770716"
  },
  {
    "id": "V1770703",
    "org": "淹水感測器自建鏡頭",
    "name": "民安路二段德善一、二街口（113之1號前)",
    "city": "臺南市",
    "town": "仁德區",
    "lon": 120.255025,
    "lat": 22.951607,
    "url": "https://sfpn.tainan.gov.tw/TainanFloodSmartWeb/ShowCameraImages/ViewCameraImage.aspx?CameraID=V1770703"
  },
  {
    "id": "V1770711",
    "org": "淹水感測器自建鏡頭",
    "name": "新市區永就里135號",
    "city": "臺南市",
    "town": "新市區",
    "lon": 120.289403,
    "lat": 23.062014,
    "url": "https://sfpn.tainan.gov.tw/TainanFloodSmartWeb/ShowCameraImages/ViewCameraImage.aspx?CameraID=V1770711"
  },
  {
    "id": "V1770715",
    "org": "淹水感測器自建鏡頭",
    "name": "仁德區新田里-263992路燈旁",
    "city": "臺南市",
    "town": "仁德區",
    "lon": 120.256086,
    "lat": 22.954489,
    "url": "https://sfpn.tainan.gov.tw/TainanFloodSmartWeb/ShowCameraImages/ViewCameraImage.aspx?CameraID=V1770715"
  },
  {
    "id": "V1770700",
    "org": "淹水感測器自建鏡頭",
    "name": "仁德區二行里行大街172巷17號",
    "city": "臺南市",
    "town": "仁德區",
    "lon": 120.218892,
    "lat": 22.915411,
    "url": "https://sfpn.tainan.gov.tw/TainanFloodSmartWeb/ShowCameraImages/ViewCameraImage.aspx?CameraID=V1770700"
  },
  {
    "id": "V1770702",
    "org": "淹水感測器自建鏡頭",
    "name": "仁德區忠義二街27號",
    "city": "臺南市",
    "town": "仁德區",
    "lon": 120.257477,
    "lat": 22.977842,
    "url": "https://sfpn.tainan.gov.tw/TainanFloodSmartWeb/ShowCameraImages/ViewCameraImage.aspx?CameraID=V1770702"
  },
  {
    "id": "V1770701",
    "org": "淹水感測器自建鏡頭",
    "name": "仁德區一甲里太乙三街92號",
    "city": "臺南市",
    "town": "仁德區",
    "lon": 120.251883,
    "lat": 22.978547,
    "url": "https://sfpn.tainan.gov.tw/TainanFloodSmartWeb/ShowCameraImages/ViewCameraImage.aspx?CameraID=V1770701"
  },
  {
    "id": "idx43",
    "org": "淹水感測器自建鏡頭",
    "name": "五光里五光路活動中心前",
    "city": "臺中市",
    "town": "烏日區",
    "lon": 120.651365,
    "lat": 24.093924,
    "url": "https://iapi.wra.gov.tw/v3/api/Image/382af3c2-b21c-4140-ae25-0717ba33eea1"
  },
  {
    "id": "idx42",
    "org": "淹水感測器自建鏡頭",
    "name": "五福里五福路",
    "city": "臺中市",
    "town": "霧峰區",
    "lon": 120.649413,
    "lat": 24.086369,
    "url": "https://iapi.wra.gov.tw/v3/api/Image/98430d2a-8380-4d0d-8379-554069ee9b07"
  },
  {
    "id": "idx46",
    "org": "淹水感測器自建鏡頭",
    "name": "福興里大安幼兒園",
    "city": "臺中市",
    "town": "大安區",
    "lon": 120.60788,
    "lat": 24.3487,
    "url": "https://iapi.wra.gov.tw/v3/api/Image/c0b8e25f-e914-40e6-9232-56a8629b8434"
  },
  {
    "id": "idx52",
    "org": "淹水感測器自建鏡頭",
    "name": "大東里藍色公路口",
    "city": "臺中市",
    "town": "大肚區",
    "lon": 120.548863,
    "lat": 24.1520135,
    "url": "https://iapi.wra.gov.tw/v3/api/Image/c71c0831-a522-4fbf-8405-e864991f848b"
  },
  {
    "id": "idx49",
    "org": "淹水感測器自建鏡頭",
    "name": "大豐里大豐路二段",
    "city": "臺中市",
    "town": "潭子區",
    "lon": 120.693742,
    "lat": 24.221267,
    "url": "https://iapi.wra.gov.tw/v3/api/Image/8a3e5168-a11c-4db7-aae3-0d2327b737f3"
  },
  {
    "id": "idx47",
    "org": "淹水感測器自建鏡頭",
    "name": "五權西路高速公路下(地下道)",
    "city": "臺中市",
    "town": "南屯區",
    "lon": 120.620108,
    "lat": 24.152875,
    "url": "https://iapi.wra.gov.tw/v3/api/Image/ebc09e90-06fd-4ce6-9e4e-0f319372ecab"
  },
  {
    "id": "idx45",
    "org": "淹水感測器自建鏡頭",
    "name": "楓樹里永春東三路2",
    "city": "臺中市",
    "town": "南屯區",
    "lon": 120.631203,
    "lat": 24.120039,
    "url": "https://iapi.wra.gov.tw/v3/api/Image/caeb9295-1826-469c-ae80-b89e343b9caf"
  },
  {
    "id": "idx50",
    "org": "淹水感測器自建鏡頭",
    "name": "夏田里中興排水",
    "city": "臺中市",
    "town": "烏日區",
    "lon": 120.654205,
    "lat": 24.090145,
    "url": "https://iapi.wra.gov.tw/v3/api/Image/fafd583f-5bcd-47d1-80b7-fe0db0c02a4a"
  },
  {
    "id": "idx48",
    "org": "淹水感測器自建鏡頭",
    "name": "鹿峰里星河路",
    "city": "臺中市",
    "town": "沙鹿區",
    "lon": 120.568875,
    "lat": 24.2524627,
    "url": "https://iapi.wra.gov.tw/v3/api/Image/46201b52-6df0-48ab-bf10-d82b1e51bd82"
  },
  {
    "id": "idx51",
    "org": "淹水感測器自建鏡頭",
    "name": "橫山里永和路",
    "city": "臺中市",
    "town": "大雅區",
    "lon": 120.6296253,
    "lat": 24.20864,
    "url": "https://iapi.wra.gov.tw/v3/api/Image/60d2f093-e0b3-4af9-885c-c54c9227c2f9"
  },
  {
    "id": "idx44",
    "org": "淹水感測器自建鏡頭",
    "name": "本堂里活動中心",
    "city": "臺中市",
    "town": "霧峰區",
    "lon": 120.6978071,
    "lat": 24.0600185,
    "url": "https://iapi.wra.gov.tw/v3/api/Image/a5c51e03-6879-4ace-8d3f-f87c6b5da64d"
  },
  {
    "id": "idx54",
    "org": "淹水感測器自建鏡頭",
    "name": "綠川里綠川水岸景觀步道(地下道)",
    "city": "臺中市",
    "town": "中區",
    "lon": 120.6839447,
    "lat": 24.1385594,
    "url": "https://iapi.wra.gov.tw/v3/api/Image/37ede91a-5617-40fe-9068-d3e2d9d00471"
  },
  {
    "id": "TSIOT001",
    "org": "淹水感測器自建鏡頭",
    "name": "高34與國1涵洞下",
    "city": "高雄市",
    "town": "燕巢區",
    "lon": 120.32633,
    "lat": 22.77169,
    "url": "https://floodinfo.kcg.gov.tw/public/SensorImage/TSIOT001.jpg"
  },
  {
    "id": "TSIOT002",
    "org": "淹水感測器自建鏡頭",
    "name": "典寶里大舍南路403巷19號",
    "city": "高雄市",
    "town": "梓官區",
    "lon": 120.26564,
    "lat": 22.73867,
    "url": "https://floodinfo.kcg.gov.tw/public/SensorImage/TSIOT002.jpg"
  },
  {
    "id": "TSIOT003",
    "org": "淹水感測器自建鏡頭",
    "name": "中正一路高速公路涵洞下方",
    "city": "高雄市",
    "town": "苓雅區",
    "lon": 120.33664,
    "lat": 22.62644,
    "url": "https://floodinfo.kcg.gov.tw/public/SensorImage/TSIOT003.jpg"
  },
  {
    "id": "TSIOT004",
    "org": "淹水感測器自建鏡頭",
    "name": "中正路400巷",
    "city": "高雄市",
    "town": "鳥松區",
    "lon": 120.36222,
    "lat": 22.66942,
    "url": "https://floodinfo.kcg.gov.tw/public/SensorImage/TSIOT004.jpg"
  },
  {
    "id": "TSIOT005",
    "org": "淹水感測器自建鏡頭",
    "name": "五福四路260巷",
    "city": "高雄市",
    "town": "鹽埕區",
    "lon": 120.28128,
    "lat": 22.62474,
    "url": "https://floodinfo.kcg.gov.tw/public/SensorImage/TSIOT005.jpg"
  },
  {
    "id": "TSIOT006",
    "org": "淹水感測器自建鏡頭",
    "name": "大新路與大正街交口",
    "city": "高雄市",
    "town": "大社區",
    "lon": 120.349027,
    "lat": 22.725101,
    "url": "https://floodinfo.kcg.gov.tw/public/SensorImage/TSIOT006.jpg"
  },
  {
    "id": "TSIOT007",
    "org": "淹水感測器自建鏡頭",
    "name": "河川街與河川街76巷",
    "city": "高雄市",
    "town": "鼓山區",
    "lon": 120.28358,
    "lat": 22.63585,
    "url": "https://floodinfo.kcg.gov.tw/public/SensorImage/TSIOT007.jpg"
  },
  {
    "id": "TSIOT008",
    "org": "淹水感測器自建鏡頭",
    "name": "三民街與河北二路150巷交口",
    "city": "高雄市",
    "town": "三民區",
    "lon": 120.29228,
    "lat": 22.63575,
    "url": "https://floodinfo.kcg.gov.tw/public/SensorImage/TSIOT008.jpg"
  },
  {
    "id": "TSIOT009",
    "org": "淹水感測器自建鏡頭",
    "name": "元帥廟附近(右昌街201號）",
    "city": "高雄市",
    "town": "楠梓區",
    "lon": 120.28908,
    "lat": 22.71165,
    "url": "https://floodinfo.kcg.gov.tw/public/SensorImage/TSIOT009.jpg"
  },
  {
    "id": "TSIOT010",
    "org": "淹水感測器自建鏡頭",
    "name": "瀨南街與大有街口",
    "city": "高雄市",
    "town": "鹽埕區",
    "lon": 120.28463,
    "lat": 22.62878,
    "url": "https://floodinfo.kcg.gov.tw/public/SensorImage/TSIOT010.jpg"
  },
  {
    "id": "TSIOT011",
    "org": "淹水感測器自建鏡頭",
    "name": "中都街69巷",
    "city": "高雄市",
    "town": "三民區",
    "lon": 120.28544,
    "lat": 22.63987,
    "url": "https://floodinfo.kcg.gov.tw/public/SensorImage/TSIOT011.jpg"
  },
  {
    "id": "TSIOT012",
    "org": "淹水感測器自建鏡頭",
    "name": "河南路17巷",
    "city": "高雄市",
    "town": "苓雅區",
    "lon": 120.32967,
    "lat": 22.62361,
    "url": "https://floodinfo.kcg.gov.tw/public/SensorImage/TSIOT012.jpg"
  },
  {
    "id": "TSIOT013",
    "org": "淹水感測器自建鏡頭",
    "name": "嘉興路357巷前",
    "city": "高雄市",
    "town": "岡山區",
    "lon": 120.304556,
    "lat": 22.82405,
    "url": "https://floodinfo.kcg.gov.tw/public/SensorImage/TSIOT013.jpg"
  },
  {
    "id": "TSIOT014",
    "org": "淹水感測器自建鏡頭",
    "name": "龍水里馬卡道路",
    "city": "高雄市",
    "town": "鼓山區",
    "lon": 120.28153,
    "lat": 22.64643,
    "url": "https://floodinfo.kcg.gov.tw/public/SensorImage/TSIOT014.jpg"
  },
  {
    "id": "TSIOT015",
    "org": "淹水感測器自建鏡頭",
    "name": "石潭里石潭路195號",
    "city": "高雄市",
    "town": "岡山區",
    "lon": 120.2687,
    "lat": 22.7745,
    "url": "https://floodinfo.kcg.gov.tw/public/SensorImage/TSIOT015.jpg"
  },
  {
    "id": "TSIOT016",
    "org": "淹水感測器自建鏡頭",
    "name": "七賢三路250號前",
    "city": "高雄市",
    "town": "鹽埕區",
    "lon": 120.284517,
    "lat": 22.630253,
    "url": "https://floodinfo.kcg.gov.tw/public/SensorImage/TSIOT016.jpg"
  },
  {
    "id": "TSIOT017",
    "org": "淹水感測器自建鏡頭",
    "name": "藍昌路與德民路口（德民路836號）",
    "city": "高雄市",
    "town": "楠梓區",
    "lon": 120.290975,
    "lat": 22.721715,
    "url": "https://floodinfo.kcg.gov.tw/public/SensorImage/TSIOT017.jpg"
  },
  {
    "id": "TSIOT018",
    "org": "淹水感測器自建鏡頭",
    "name": "和平路二段199巷",
    "city": "高雄市",
    "town": "大社區",
    "lon": 120.360056,
    "lat": 22.722778,
    "url": "https://floodinfo.kcg.gov.tw/public/SensorImage/TSIOT018.jpg"
  },
  {
    "id": "TSIOT019",
    "org": "淹水感測器自建鏡頭",
    "name": "公園路、隆豐路口",
    "city": "高雄市",
    "town": "橋頭區",
    "lon": 120.306135,
    "lat": 22.755704,
    "url": "https://floodinfo.kcg.gov.tw/public/SensorImage/TSIOT019.jpg"
  },
  {
    "id": "TSIOT020",
    "org": "淹水感測器自建鏡頭",
    "name": "文寧街",
    "city": "高雄市",
    "town": "左營區",
    "lon": 120.30188,
    "lat": 22.67994,
    "url": "https://floodinfo.kcg.gov.tw/public/SensorImage/TSIOT020.jpg"
  },
  {
    "id": "TSIOT021",
    "org": "淹水感測器自建鏡頭",
    "name": "泰安里民生路75號",
    "city": "高雄市",
    "town": "美濃區",
    "lon": 120.5421,
    "lat": 22.9007,
    "url": "https://floodinfo.kcg.gov.tw/public/SensorImage/TSIOT021.jpg"
  },
  {
    "id": "TSIOT022",
    "org": "淹水感測器自建鏡頭",
    "name": "海光鋼鐵廠前北上機車道",
    "city": "高雄市",
    "town": "小港區",
    "lon": 120.35887,
    "lat": 22.55901,
    "url": "https://floodinfo.kcg.gov.tw/public/SensorImage/TSIOT022.jpg"
  },
  {
    "id": "TSIOT023",
    "org": "淹水感測器自建鏡頭",
    "name": "內惟埤支線鄰近出口",
    "city": "高雄市",
    "town": "鼓山區",
    "lon": 120.295079,
    "lat": 22.652423,
    "url": "https://floodinfo.kcg.gov.tw/public/SensorImage/TSIOT023.jpg"
  },
  {
    "id": "TSIOT024",
    "org": "淹水感測器自建鏡頭",
    "name": "岡山鹽埔代天府前",
    "city": "高雄市",
    "town": "岡山區",
    "lon": 120.281324,
    "lat": 22.769963,
    "url": "https://floodinfo.kcg.gov.tw/public/SensorImage/TSIOT024.jpg"
  },
  {
    "id": "TSIOT025",
    "org": "淹水感測器自建鏡頭",
    "name": "成功二路(台糖物流園區前)",
    "city": "高雄市",
    "town": "前鎮區",
    "lon": 120.304371,
    "lat": 22.59716,
    "url": "https://floodinfo.kcg.gov.tw/public/SensorImage/TSIOT025.jpg"
  },
  {
    "id": "TSIOT026",
    "org": "淹水感測器自建鏡頭",
    "name": "軍校路實踐路路口",
    "city": "高雄市",
    "town": "左營區",
    "lon": 120.29234,
    "lat": 22.69039,
    "url": "https://floodinfo.kcg.gov.tw/public/SensorImage/TSIOT026.jpg"
  },
  {
    "id": "TSIOT027",
    "org": "淹水感測器自建鏡頭",
    "name": "永宏巷",
    "city": "高雄市",
    "town": "大社區",
    "lon": 120.343198,
    "lat": 22.716927,
    "url": "https://floodinfo.kcg.gov.tw/public/SensorImage/TSIOT027.jpg"
  },
  {
    "id": "TSIOT028",
    "org": "淹水感測器自建鏡頭",
    "name": "筆秀路34號",
    "city": "高雄市",
    "town": "橋頭區",
    "lon": 120.312111,
    "lat": 22.768421,
    "url": "https://floodinfo.kcg.gov.tw/public/SensorImage/TSIOT028.jpg"
  },
  {
    "id": "TSIOT029",
    "org": "淹水感測器自建鏡頭",
    "name": "澄觀路與仁怡街口",
    "city": "高雄市",
    "town": "仁武區",
    "lon": 120.351464,
    "lat": 22.684822,
    "url": "https://floodinfo.kcg.gov.tw/public/SensorImage/TSIOT029.jpg"
  },
  {
    "id": "TSIOT030",
    "org": "淹水感測器自建鏡頭",
    "name": "小滾水19號旁",
    "city": "高雄市",
    "town": "田寮區",
    "lon": 120.3861,
    "lat": 22.8779,
    "url": "https://floodinfo.kcg.gov.tw/public/SensorImage/TSIOT030.jpg"
  },
  {
    "id": "C000079",
    "org": "各縣市交通局",
    "name": "自立一路、建國三路",
    "city": "高雄市",
    "town": "高雄市",
    "lon": 120.29647,
    "lat": 22.63792,
    "url": "https://cctv6.kctmc.nat.gov.tw/1dd04532"
  },
  {
    "id": "C000078",
    "org": "各縣市交通局",
    "name": "沿海二路、中鋼路",
    "city": "高雄市",
    "town": "高雄市",
    "lon": 120.35723,
    "lat": 22.56074,
    "url": "https://cctv3.kctmc.nat.gov.tw/62e71b00"
  },
  {
    "id": "C000199",
    "org": "各縣市交通局",
    "name": "台29、溪埔路西北角",
    "city": "高雄市",
    "town": "高雄市",
    "lon": 120.444982,
    "lat": 22.728275,
    "url": "https://cctv1.kctmc.nat.gov.tw/61fb6bff"
  },
  {
    "id": "C000075",
    "org": "各縣市交通局",
    "name": "建國三路、河西路(北端街)\\r\\n",
    "city": "高雄市",
    "town": "高雄市",
    "lon": 120.28412,
    "lat": 22.63395,
    "url": "https://cctv3.kctmc.nat.gov.tw/626b0e00"
  },
  {
    "id": "C000196",
    "org": "各縣市交通局",
    "name": "萬大大橋往東上橋匝道口(南側)",
    "city": "高雄市",
    "town": "高雄市",
    "lon": 120.433116,
    "lat": 22.592141,
    "url": "https://cctv1.kctmc.nat.gov.tw/e5b8e6af"
  },
  {
    "id": "C000074",
    "org": "各縣市交通局",
    "name": "新生路、金福路",
    "city": "高雄市",
    "town": "高雄市",
    "lon": 120.32347,
    "lat": 22.56782,
    "url": "https://cctv3.kctmc.nat.gov.tw/1ead28ce"
  },
  {
    "id": "C000195",
    "org": "各縣市交通局",
    "name": "萬大大橋往西下橋匝道口(北側)",
    "city": "高雄市",
    "town": "高雄市",
    "lon": 120.433095,
    "lat": 22.592815,
    "url": "https://cctv4.kctmc.nat.gov.tw/9ac5537e"
  },
  {
    "id": "C000077",
    "org": "各縣市交通局",
    "name": "大順一路、博愛二路",
    "city": "高雄市",
    "town": "高雄市",
    "lon": 120.30329,
    "lat": 22.6562,
    "url": "https://cctv3.kctmc.nat.gov.tw/8e102c51"
  },
  {
    "id": "C000198",
    "org": "各縣市交通局",
    "name": "台29、斜張橋南側",
    "city": "高雄市",
    "town": "高雄市",
    "lon": 120.447149,
    "lat": 22.764943,
    "url": "https://cctv1.kctmc.nat.gov.tw/2a6048ac"
  },
  {
    "id": "C000197",
    "org": "各縣市交通局",
    "name": "雙園大橋西向下橋(北側)",
    "city": "高雄市",
    "town": "高雄市",
    "lon": 120.412667,
    "lat": 22.497769,
    "url": "https://cctv7.kctmc.nat.gov.tw/play/jpg.php?devid={85972372-4a2c-7794-b53d-7b546626c0f8}&L=dfe8885c1acbe4c5e5fb91e6d9bd3724"
  },
  {
    "id": "C000082",
    "org": "各縣市交通局",
    "name": "中山三路、凱旋四路",
    "city": "高雄市",
    "town": "高雄市",
    "lon": 120.316418,
    "lat": 22.596278,
    "url": "https://cctv3.kctmc.nat.gov.tw/3cb70392"
  },
  {
    "id": "C000081",
    "org": "各縣市交通局",
    "name": "中山三路、民權二路",
    "city": "高雄市",
    "town": "高雄市",
    "lon": 120.30894,
    "lat": 22.60501,
    "url": "https://cctv3.kctmc.nat.gov.tw/afcdd0a1"
  },
  {
    "id": "C000084",
    "org": "各縣市交通局",
    "name": "左楠路、加昌路",
    "city": "高雄市",
    "town": "高雄市",
    "lon": 120.30463,
    "lat": 22.7178,
    "url": "https://cctv4.kctmc.nat.gov.tw/d63ccce7"
  },
  {
    "id": "C000083",
    "org": "各縣市交通局",
    "name": "沿海四路、中林路",
    "city": "高雄市",
    "town": "高雄市",
    "lon": 120.35025,
    "lat": 22.52492,
    "url": "https://cctv6.kctmc.nat.gov.tw/47e2aeaf"
  },
  {
    "id": "C000080",
    "org": "各縣市交通局",
    "name": "凱旋二路、三多二路",
    "city": "高雄市",
    "town": "高雄市",
    "lon": 120.32526,
    "lat": 22.62072,
    "url": "https://cctv3.kctmc.nat.gov.tw/4b9fd86e"
  },
  {
    "id": "C000189",
    "org": "各縣市交通局",
    "name": "鳳山區-鳳屏一路、九和路西側",
    "city": "高雄市",
    "town": "高雄市",
    "lon": 120.417066,
    "lat": 22.641858,
    "url": "https://cctv6.kctmc.nat.gov.tw/e83a15ce"
  },
  {
    "id": "C000067",
    "org": "各縣市交通局",
    "name": "光華二路、一心一路",
    "city": "高雄市",
    "town": "高雄市",
    "lon": 120.31667,
    "lat": 22.6087,
    "url": "https://cctv3.kctmc.nat.gov.tw/861c80fd"
  },
  {
    "id": "C000188",
    "org": "各縣市交通局",
    "name": "鳳山區-鳳屏一路、光明路三段東北角",
    "city": "高雄市",
    "town": "高雄市",
    "lon": 120.401831,
    "lat": 22.63964,
    "url": "https://cctv1.kctmc.nat.gov.tw/2bdc8df5"
  },
  {
    "id": "C000069",
    "org": "各縣市交通局",
    "name": "新生路、后安路",
    "city": "高雄市",
    "town": "高雄市",
    "lon": 120.32006,
    "lat": 22.57175,
    "url": "https://cctv3.kctmc.nat.gov.tw/cfd9f7d6"
  },
  {
    "id": "C000185",
    "org": "各縣市交通局",
    "name": "鳳山區-中山東路、光遠東路西南角",
    "city": "高雄市",
    "town": "高雄市",
    "lon": 120.367885,
    "lat": 22.622766,
    "url": "https://cctv1.kctmc.nat.gov.tw/4b6632c7"
  },
  {
    "id": "C000063",
    "org": "各縣市交通局",
    "name": "民權一路、五福一路",
    "city": "高雄市",
    "town": "高雄市",
    "lon": 120.31087,
    "lat": 22.62646,
    "url": "https://cctv3.kctmc.nat.gov.tw/7980745e"
  },
  {
    "id": "C000066",
    "org": "各縣市交通局",
    "name": "民族一路、十全一路",
    "city": "高雄市",
    "town": "高雄市",
    "lon": 120.31436,
    "lat": 22.64443,
    "url": "https://cctv1.kctmc.nat.gov.tw/4c153727"
  },
  {
    "id": "C000187",
    "org": "各縣市交通局",
    "name": "鳳山區-鳳屏一路、光明路三段西南角",
    "city": "高雄市",
    "town": "高雄市",
    "lon": 120.401144,
    "lat": 22.639204,
    "url": "https://cctv6.kctmc.nat.gov.tw/115982e6"
  },
  {
    "id": "C000065",
    "org": "各縣市交通局",
    "name": "民權二路、一心二路",
    "city": "高雄市",
    "town": "高雄市",
    "lon": 120.31325,
    "lat": 22.61014,
    "url": "https://cctv3.kctmc.nat.gov.tw/b47eb55b"
  },
  {
    "id": "C000186",
    "org": "各縣市交通局",
    "name": "鳳山區-鳳屏一路、大漢路路口東側",
    "city": "高雄市",
    "town": "高雄市",
    "lon": 120.389342,
    "lat": 22.633976,
    "url": "https://cctv1.kctmc.nat.gov.tw/9f46fea2"
  },
  {
    "id": "C000192",
    "org": "各縣市交通局",
    "name": "鳳山區-光明路二段、琉球路南側",
    "city": "高雄市",
    "town": "高雄市",
    "lon": 120.413418,
    "lat": 22.611475,
    "url": "https://cctv1.kctmc.nat.gov.tw/c1d42d84"
  },
  {
    "id": "C000191",
    "org": "各縣市交通局",
    "name": "鳳山區-光明路三段、江山路南側",
    "city": "高雄市",
    "town": "高雄市",
    "lon": 120.402431,
    "lat": 22.635936,
    "url": "https://cctv1.kctmc.nat.gov.tw/d4a2d7a4"
  },
  {
    "id": "C000072",
    "org": "各縣市交通局",
    "name": "三多一路、高速公路(東側)",
    "city": "高雄市",
    "town": "高雄市",
    "lon": 120.33676,
    "lat": 22.62401,
    "url": "https://cctv3.kctmc.nat.gov.tw/166157d9"
  },
  {
    "id": "C000190",
    "org": "各縣市交通局",
    "name": "鳳山區-鳳屏一路、九和路西北角",
    "city": "高雄市",
    "town": "高雄市",
    "lon": 120.418224,
    "lat": 22.642056,
    "url": "https://cctv1.kctmc.nat.gov.tw/60c7b824\\r\\n"
  },
  {
    "id": "C000057",
    "org": "各縣市交通局",
    "name": "左楠路、翠華路、左營大路\\n",
    "city": "高雄市",
    "town": "高雄市",
    "lon": 120.30262,
    "lat": 22.69937,
    "url": "https://cctv2.kctmc.nat.gov.tw/5df44db2"
  },
  {
    "id": "C000178",
    "org": "各縣市交通局",
    "name": "鳳山區-縣188、光明路東側",
    "city": "高雄市",
    "town": "高雄市",
    "lon": 120.420156,
    "lat": 22.589249,
    "url": "https://cctv1.kctmc.nat.gov.tw/cedcf37d"
  },
  {
    "id": "C000299",
    "org": "各縣市交通局",
    "name": "凱旋四路、鎮興路",
    "city": "高雄市",
    "town": "高雄市",
    "lon": 120.311256,
    "lat": 22.593429,
    "url": "https://cctv4.kctmc.nat.gov.tw/128c9268"
  },
  {
    "id": "C000056",
    "org": "各縣市交通局",
    "name": "左楠路、後昌路",
    "city": "高雄市",
    "town": "高雄市",
    "lon": 120.30239,
    "lat": 22.70792,
    "url": "https://cctv3.kctmc.nat.gov.tw/aab55f79"
  },
  {
    "id": "C000177",
    "org": "各縣市交通局",
    "name": "鳳山區-縣188、光明路西側",
    "city": "高雄市",
    "town": "高雄市",
    "lon": 120.419812,
    "lat": 22.588892,
    "url": "https://cctv4.kctmc.nat.gov.tw/abc2d1e1"
  },
  {
    "id": "C000059",
    "org": "各縣市交通局",
    "name": "自由三路、新庄仔路",
    "city": "高雄市",
    "town": "高雄市",
    "lon": 120.30973,
    "lat": 22.66871,
    "url": "https://cctv3.kctmc.nat.gov.tw/539a4fc0"
  },
  {
    "id": "C000058",
    "org": "各縣市交通局",
    "name": "自由四路、大中二路",
    "city": "高雄市",
    "town": "高雄市",
    "lon": 120.3137,
    "lat": 22.67928,
    "url": "https://cctv4.kctmc.nat.gov.tw/6b30a4c5"
  },
  {
    "id": "C000179",
    "org": "各縣市交通局",
    "name": "鳳山區-縣188、華中路東南角",
    "city": "高雄市",
    "town": "高雄市",
    "lon": 120.428953,
    "lat": 22.591626,
    "url": "https://cctv3.kctmc.nat.gov.tw/50dc8e4b"
  },
  {
    "id": "C000053",
    "org": "各縣市交通局",
    "name": "高楠公路、加昌路",
    "city": "高雄市",
    "town": "高雄市",
    "lon": 120.32207,
    "lat": 22.72572,
    "url": "https://cctv3.kctmc.nat.gov.tw/d7c338f4"
  },
  {
    "id": "C000174",
    "org": "各縣市交通局",
    "name": "鳳山區-縣188、內坑路",
    "city": "高雄市",
    "town": "高雄市",
    "lon": 120.384665,
    "lat": 22.589566,
    "url": "https://cctv2.kctmc.nat.gov.tw/4c4ffdfc"
  },
  {
    "id": "C000295",
    "org": "各縣市交通局",
    "name": "一心一路、和平二路(西南角)",
    "city": "高雄市",
    "town": "高雄市",
    "lon": 120.320606,
    "lat": 22.606856,
    "url": "https://cctv7.kctmc.nat.gov.tw/play/jpg.php?devid={4259373f-e435-bc34-0dea-d0095669268c}&L=dfe8885c1acbe4c5e5fb91e6d9bd3724"
  },
  {
    "id": "C000052",
    "org": "各縣市交通局",
    "name": "高楠公路、水管路",
    "city": "高雄市",
    "town": "高雄市",
    "lon": 120.32451,
    "lat": 22.70666,
    "url": "https://cctv3.kctmc.nat.gov.tw/e4062e75"
  },
  {
    "id": "C000173",
    "org": "各縣市交通局",
    "name": "鳳山區-鳳頂路、保生路東北角",
    "city": "高雄市",
    "town": "高雄市",
    "lon": 120.359173,
    "lat": 22.593092,
    "url": "https://cctv3.kctmc.nat.gov.tw/01250912"
  },
  {
    "id": "C000294",
    "org": "各縣市交通局",
    "name": "一心一路、凱旋四路(西南角)",
    "city": "高雄市",
    "town": "高雄市",
    "lon": 120.324554,
    "lat": 22.605112,
    "url": "https://cctv7.kctmc.nat.gov.tw/play/jpg.php?devid={269e04bf-45d1-d024-4581-44c2aa997dfb}&L=dfe8885c1acbe4c5e5fb91e6d9bd3724"
  },
  {
    "id": "C000055",
    "org": "各縣市交通局",
    "name": "自由一路、十全一路",
    "city": "高雄市",
    "town": "高雄市",
    "lon": 120.30876,
    "lat": 22.64504,
    "url": "https://cctv1.kctmc.nat.gov.tw/4632fb0e"
  },
  {
    "id": "C000297",
    "org": "各縣市交通局",
    "name": "一心一路、凱旋三路(西北角)",
    "city": "高雄市",
    "town": "高雄市",
    "lon": 120.324613,
    "lat": 22.605226,
    "url": "https://cctv9.kctmc.nat.gov.tw/play/jpg.php?devid={88ec60ea-bf30-f2f4-dd1b-a76b094ed092}&L=33806a101aa5543ed05e71b6f76648a8"
  },
  {
    "id": "C000054",
    "org": "各縣市交通局",
    "name": "民族一路、天祥二路",
    "city": "高雄市",
    "town": "高雄市",
    "lon": 120.31705,
    "lat": 22.66824,
    "url": "https://cctv4.kctmc.nat.gov.tw/17b088d3"
  },
  {
    "id": "C000175",
    "org": "各縣市交通局",
    "name": "鳳山區-縣188、鳳林路北側",
    "city": "高雄市",
    "town": "高雄市",
    "lon": 120.404921,
    "lat": 22.58703,
    "url": "https://cctv1.kctmc.nat.gov.tw/7b435e24"
  },
  {
    "id": "C700017",
    "org": "各縣市交通局",
    "name": "大樹區-台29與統嶺路",
    "city": "高雄市",
    "town": "高雄市",
    "lon": 120.448179,
    "lat": 22.754615,
    "url": "https://cctv7.kctmc.nat.gov.tw/play/jpg.php?devid={579447c1-3211-b704-3d7c-2fc45a0d904a}&L=dfe8885c1acbe4c5e5fb91e6d9bd3724"
  },
  {
    "id": "C700016",
    "org": "各縣市交通局",
    "name": "大樹區-台29與興田路",
    "city": "高雄市",
    "town": "高雄市",
    "lon": 120.447471,
    "lat": 22.7448,
    "url": "https://cctv4.kctmc.nat.gov.tw/15028711"
  },
  {
    "id": "C700015",
    "org": "各縣市交通局",
    "name": "高鐵路、重信路",
    "city": "高雄市",
    "town": "高雄市",
    "lon": 120.308071,
    "lat": 22.686518,
    "url": "https://cctv6.kctmc.nat.gov.tw/f6007b0d"
  },
  {
    "id": "C000060",
    "org": "各縣市交通局",
    "name": "自由二路、大順一路",
    "city": "高雄市",
    "town": "高雄市",
    "lon": 120.30885,
    "lat": 22.65663,
    "url": "https://cctv6.kctmc.nat.gov.tw/1d9aa609"
  },
  {
    "id": "C000181",
    "org": "各縣市交通局",
    "name": "鳳山區-五甲一路、瑞隆東路西北角",
    "city": "高雄市",
    "town": "高雄市",
    "lon": 120.34647,
    "lat": 22.60688,
    "url": "https://cctv1.kctmc.nat.gov.tw/a32d1d17"
  },
  {
    "id": "C000062",
    "org": "各縣市交通局",
    "name": "民權一路、民生一路",
    "city": "高雄市",
    "town": "高雄市",
    "lon": 120.31046,
    "lat": 22.62761,
    "url": "https://cctv3.kctmc.nat.gov.tw/0840dedd"
  },
  {
    "id": "C000061",
    "org": "各縣市交通局",
    "name": "自由一路、同盟一路",
    "city": "高雄市",
    "town": "高雄市",
    "lon": 120.30911,
    "lat": 22.65002,
    "url": "https://cctv6.kctmc.nat.gov.tw/f6ad1a36"
  },
  {
    "id": "C000182",
    "org": "各縣市交通局",
    "name": "鳳山區-五甲一路、南京路東南角",
    "city": "高雄市",
    "town": "高雄市",
    "lon": 120.345783,
    "lat": 22.604701,
    "url": "https://cctv9.kctmc.nat.gov.tw/play/jpg.php?devid={019ac963-8ef2-27d4-e502-145e470bf7d9}&L=33806a101aa5543ed05e71b6f76648a8"
  },
  {
    "id": "C000046",
    "org": "各縣市交通局",
    "name": "九如一路、大順二路",
    "city": "高雄市",
    "town": "高雄市",
    "lon": 120.32793,
    "lat": 22.63909,
    "url": "https://cctv3.kctmc.nat.gov.tw/73777faa"
  },
  {
    "id": "C000167",
    "org": "各縣市交通局",
    "name": "中山北路、中山南路",
    "city": "高雄市",
    "town": "高雄市",
    "lon": 120.29908,
    "lat": 22.79236,
    "url": "https://cctv2.kctmc.nat.gov.tw/4a967b28"
  },
  {
    "id": "C000045",
    "org": "各縣市交通局",
    "name": "翠華路、大中二路",
    "city": "高雄市",
    "town": "高雄市",
    "lon": 120.3029,
    "lat": 22.68569,
    "url": "https://cctv3.kctmc.nat.gov.tw/cbc10d4b"
  },
  {
    "id": "C000287",
    "org": "各縣市交通局",
    "name": "三多一路、輔仁路(東南角)",
    "city": "高雄市",
    "town": "高雄市",
    "lon": 120.333421,
    "lat": 22.623524,
    "url": "https://cctv3.kctmc.nat.gov.tw/50bc6c50"
  },
  {
    "id": "C000048",
    "org": "各縣市交通局",
    "name": "翠華路、明潭路",
    "city": "高雄市",
    "town": "高雄市",
    "lon": 120.30283,
    "lat": 22.68886,
    "url": "https://cctv3.kctmc.nat.gov.tw/34c498f2"
  },
  {
    "id": "C000169",
    "org": "各縣市交通局",
    "name": "鳳山區-國泰路二段、南京路西南角",
    "city": "高雄市",
    "town": "高雄市",
    "lon": 120.345352,
    "lat": 22.621645,
    "url": "https://cctv2.kctmc.nat.gov.tw/558e85c5"
  },
  {
    "id": "C000047",
    "org": "各縣市交通局",
    "name": "九如一路、高速公路(西側)",
    "city": "高雄市",
    "town": "高雄市",
    "lon": 120.33673,
    "lat": 22.63753,
    "url": "https://cctv3.kctmc.nat.gov.tw/4f0415e9"
  },
  {
    "id": "C000168",
    "org": "各縣市交通局",
    "name": "中山南路、岡山南路",
    "city": "高雄市",
    "town": "高雄市",
    "lon": 120.29881,
    "lat": 22.78001,
    "url": "https://cctv7.kctmc.nat.gov.tw/play/jpg.php?devid={5c1e6270-6a79-acd4-e91b-03c2534d7920}&L=dfe8885c1acbe4c5e5fb91e6d9bd3724"
  },
  {
    "id": "C000289",
    "org": "各縣市交通局",
    "name": "二聖路、凱旋三路(東南角)",
    "city": "高雄市",
    "town": "高雄市",
    "lon": 120.326734,
    "lat": 22.611714,
    "url": "https://cctv3.kctmc.nat.gov.tw/e228b529"
  },
  {
    "id": "C000163",
    "org": "各縣市交通局",
    "name": "成功路、嘉新東路",
    "city": "高雄市",
    "town": "高雄市",
    "lon": 120.29851,
    "lat": 22.80743,
    "url": "https://cctv7.kctmc.nat.gov.tw/play/jpg.php?devid={ecb53b85-860d-43c4-650a-563aef7d0a1a}&L=dfe8885c1acbe4c5e5fb91e6d9bd3724"
  },
  {
    "id": "C000284",
    "org": "各縣市交通局",
    "name": "三多二路、福德三路(東北角)",
    "city": "高雄市",
    "town": "高雄市",
    "lon": 120.327826,
    "lat": 22.621605,
    "url": "https://cctv3.kctmc.nat.gov.tw/44950c71"
  },
  {
    "id": "C710059",
    "org": "各縣市交通局",
    "name": "台20線-六龜區新發公路(73K+100)",
    "city": "高雄市",
    "town": "高雄市",
    "lon": 120.67405,
    "lat": 23.074865,
    "url": "https://thbcctv11.thb.gov.tw/T20-73K+100"
  },
  {
    "id": "C000041",
    "org": "各縣市交通局",
    "name": "中山四路、鎮海路",
    "city": "高雄市",
    "town": "高雄市",
    "lon": 120.318879,
    "lat": 22.592834,
    "url": "https://cctv3.kctmc.nat.gov.tw/40f0fdd6"
  },
  {
    "id": "C000283",
    "org": "各縣市交通局",
    "name": "臨海新路消防隊前",
    "city": "高雄市",
    "town": "高雄市",
    "lon": 120.277476,
    "lat": 22.620206,
    "url": "https://cctv3.kctmc.nat.gov.tw/bead0cfa"
  },
  {
    "id": "C710058",
    "org": "各縣市交通局",
    "name": "台29線-台29線85K+850(85K+850)",
    "city": "高雄市",
    "town": "高雄市",
    "lon": 120.44761,
    "lat": 22.75633,
    "url": "https://thbcctv13.thb.gov.tw/T29-85K+850"
  },
  {
    "id": "C000044",
    "org": "各縣市交通局",
    "name": "中華四路、明誠三路",
    "city": "高雄市",
    "town": "高雄市",
    "lon": 120.29225,
    "lat": 22.66121,
    "url": "https://cctv1.kctmc.nat.gov.tw/55f8fc17"
  },
  {
    "id": "C000165",
    "org": "各縣市交通局",
    "name": "柳橋西路與(中華路、仁壽路口)",
    "city": "高雄市",
    "town": "高雄市",
    "lon": 120.2885,
    "lat": 22.79069,
    "url": "https://cctv7.kctmc.nat.gov.tw/play/jpg.php?devid={ff496757-df1f-3534-4941-09f39ff3b5e6}&L=dfe8885c1acbe4c5e5fb91e6d9bd3724"
  },
  {
    "id": "C000286",
    "org": "各縣市交通局",
    "name": "三多一路、河南路(西南角)",
    "city": "高雄市",
    "town": "高雄市",
    "lon": 120.331141,
    "lat": 22.622729,
    "url": "https://cctv3.kctmc.nat.gov.tw/73b5a8a2"
  },
  {
    "id": "C000043",
    "org": "各縣市交通局",
    "name": "民族一路、九如一路",
    "city": "高雄市",
    "town": "高雄市",
    "lon": 120.31427,
    "lat": 22.64044,
    "url": "https://cctv6.kctmc.nat.gov.tw/ab95a92c"
  },
  {
    "id": "C000285",
    "org": "各縣市交通局",
    "name": "三多一路、河北路(東北角)",
    "city": "高雄市",
    "town": "高雄市",
    "lon": 120.331436,
    "lat": 22.622838,
    "url": "https://cctv3.kctmc.nat.gov.tw/9def234c"
  },
  {
    "id": "C000170",
    "org": "各縣市交通局",
    "name": "鳳山區-國泰路二段、青年路一段東北角",
    "city": "高雄市",
    "town": "高雄市",
    "lon": 120.349216,
    "lat": 22.618844,
    "url": "https://cctv4.kctmc.nat.gov.tw/716795c3"
  },
  {
    "id": "C000291",
    "org": "各縣市交通局",
    "name": "英祥街、凱旋三路(東北角)",
    "city": "高雄市",
    "town": "高雄市",
    "lon": 120.326643,
    "lat": 22.617171,
    "url": "https://cctv4.kctmc.nat.gov.tw/658840f4"
  },
  {
    "id": "C000051",
    "org": "各縣市交通局",
    "name": "高楠公路、楠陽路",
    "city": "高雄市",
    "town": "高雄市",
    "lon": 120.32488,
    "lat": 22.72172,
    "url": "https://cctv3.kctmc.nat.gov.tw/f640fde7"
  },
  {
    "id": "C000293",
    "org": "各縣市交通局",
    "name": "育樂路、凱旋三路(東南角)",
    "city": "高雄市",
    "town": "高雄市",
    "lon": 120.324911,
    "lat": 22.606645,
    "url": "https://cctv7.kctmc.nat.gov.tw/play/jpg.php?devid={24bdacda-4337-08a4-a5cd-27f1e7f98ad4}&L=dfe8885c1acbe4c5e5fb91e6d9bd3724"
  },
  {
    "id": "C000050",
    "org": "各縣市交通局",
    "name": "沿海二路、茂大街",
    "city": "高雄市",
    "town": "高雄市",
    "lon": 120.36297,
    "lat": 22.55366,
    "url": "https://cctv1.kctmc.nat.gov.tw/c5e8bdda"
  },
  {
    "id": "C000171",
    "org": "各縣市交通局",
    "name": "鳳山區-國泰路二段、五甲二路西北角",
    "city": "高雄市",
    "town": "高雄市",
    "lon": 120.353379,
    "lat": 22.616546,
    "url": "https://cctv1.kctmc.nat.gov.tw/ac2ce75d"
  },
  {
    "id": "C000292",
    "org": "各縣市交通局",
    "name": "賢明路、凱旋三路(東南角)",
    "city": "高雄市",
    "town": "高雄市",
    "lon": 120.325439,
    "lat": 22.60897,
    "url": "https://cctv4.kctmc.nat.gov.tw/b8aef900"
  },
  {
    "id": "C000035",
    "org": "各縣市交通局",
    "name": "翠華路、崇德路(新庄仔路)",
    "city": "高雄市",
    "town": "高雄市",
    "lon": 120.29771,
    "lat": 22.67865,
    "url": "https://cctv3.kctmc.nat.gov.tw/1931351a"
  },
  {
    "id": "C000156",
    "org": "各縣市交通局",
    "name": "中山西路、光復路二段",
    "city": "高雄市",
    "town": "高雄市",
    "lon": 120.33954,
    "lat": 22.62949,
    "url": "https://cctv1.kctmc.nat.gov.tw/b5506346"
  },
  {
    "id": "C000277",
    "org": "各縣市交通局",
    "name": "鳥松區-大埤南路與澄清路交岔路口",
    "city": "高雄市",
    "town": "高雄市",
    "lon": 120.348962,
    "lat": 22.652016,
    "url": "https://cctv9.kctmc.nat.gov.tw/play/jpg.php?devid={46a8a2a0-cbc4-ca34-89ad-9267a8373358}&L=33806a101aa5543ed05e71b6f76648a8"
  },
  {
    "id": "C999108",
    "org": "各縣市交通局",
    "name": "美術東四路、美術館路",
    "city": "高雄市",
    "town": "高雄市",
    "lon": 120.289992,
    "lat": 22.654757,
    "url": "https://cctv8.kctmc.nat.gov.tw/9651cb7f"
  },
  {
    "id": "C000155",
    "org": "各縣市交通局",
    "name": "澄清路、自由路",
    "city": "高雄市",
    "town": "高雄市",
    "lon": 120.34434,
    "lat": 22.62487,
    "url": "https://cctv4.kctmc.nat.gov.tw/740634fd"
  },
  {
    "id": "C000276",
    "org": "各縣市交通局",
    "name": "鳥松區-大埤路與長庚路交岔路口",
    "city": "高雄市",
    "town": "高雄市",
    "lon": 120.356054,
    "lat": 22.651157,
    "url": "https://cctv6.kctmc.nat.gov.tw/C000276"
  },
  {
    "id": "C999107",
    "org": "各縣市交通局",
    "name": "馬卡道路、美術館路",
    "city": "高雄市",
    "town": "高雄市",
    "lon": 120.281867,
    "lat": 22.65476,
    "url": "https://cctv8.kctmc.nat.gov.tw/481b3b59"
  },
  {
    "id": "C000037",
    "org": "各縣市交通局",
    "name": "中華四路、四維四路",
    "city": "高雄市",
    "town": "高雄市",
    "lon": 120.30098,
    "lat": 22.61623,
    "url": "https://cctv3.kctmc.nat.gov.tw/98cf91d6"
  },
  {
    "id": "C000158",
    "org": "各縣市交通局",
    "name": "澄清路、本館路",
    "city": "高雄市",
    "town": "高雄市",
    "lon": 120.34664,
    "lat": 22.64785,
    "url": "https://cctv2.kctmc.nat.gov.tw/bd3bd23d"
  },
  {
    "id": "C000036",
    "org": "各縣市交通局",
    "name": "中華五路、凱旋四路",
    "city": "高雄市",
    "town": "高雄市",
    "lon": 120.30979,
    "lat": 22.59366,
    "url": "https://cctv3.kctmc.nat.gov.tw/3d7b717d"
  },
  {
    "id": "C000157",
    "org": "各縣市交通局",
    "name": "中山路、光遠路",
    "city": "高雄市",
    "town": "高雄市",
    "lon": 120.3566,
    "lat": 22.62604,
    "url": "https://cctv2.kctmc.nat.gov.tw/cc2b457f"
  },
  {
    "id": "C999105",
    "org": "各縣市交通局",
    "name": "大順、龍德路口(向西)",
    "city": "高雄市",
    "town": "高雄市",
    "lon": 120.297134,
    "lat": 22.654723,
    "url": "https://cctv8.kctmc.nat.gov.tw/40d3c086"
  },
  {
    "id": "C000152",
    "org": "各縣市交通局",
    "name": "瑞隆東路出口閘道南向路口",
    "city": "高雄市",
    "town": "高雄市",
    "lon": 120.34096,
    "lat": 22.60619,
    "url": "https://cctv2.kctmc.nat.gov.tw/3fa3a3e5"
  },
  {
    "id": "C710048",
    "org": "各縣市交通局",
    "name": "台28線-台28線20K+500(20K+500)",
    "city": "高雄市",
    "town": "高雄市",
    "lon": 120.40605,
    "lat": 22.89374,
    "url": "https://thbcctv11.thb.gov.tw/T28-20K+500"
  },
  {
    "id": "C000030",
    "org": "各縣市交通局",
    "name": "旗津三路、北汕巷",
    "city": "高雄市",
    "town": "高雄市",
    "lon": 120.2772,
    "lat": 22.599251,
    "url": "https://cctv2.kctmc.nat.gov.tw/bcb2a39b"
  },
  {
    "id": "C000151",
    "org": "各縣市交通局",
    "name": "光遠路西向路口(光遠/經武/維新)",
    "city": "高雄市",
    "town": "高雄市",
    "lon": 120.36191,
    "lat": 22.62554,
    "url": "https://cctv6.kctmc.nat.gov.tw/ef046a1d"
  },
  {
    "id": "C000272",
    "org": "各縣市交通局",
    "name": "仁武區-鳳仁路與澄觀路交岔路口",
    "city": "高雄市",
    "town": "高雄市",
    "lon": 120.35291,
    "lat": 22.686004,
    "url": "https://cctv9.kctmc.nat.gov.tw/play/jpg.php?devid={e588681d-9714-bb94-31db-aa17b7e6f3ce}&L=33806a101aa5543ed05e71b6f76648a8"
  },
  {
    "id": "C000033",
    "org": "各縣市交通局",
    "name": "大中一路、民族一路",
    "city": "高雄市",
    "town": "高雄市",
    "lon": 120.31905,
    "lat": 22.67892,
    "url": "https://cctv2.kctmc.nat.gov.tw/6d9cd242"
  },
  {
    "id": "C000154",
    "org": "各縣市交通局",
    "name": "台88鳳山交流道、鳳頂路西側",
    "city": "高雄市",
    "town": "高雄市",
    "lon": 120.35888,
    "lat": 22.59042,
    "url": "https://cctv4.kctmc.nat.gov.tw/c53f7089"
  },
  {
    "id": "C000275",
    "org": "各縣市交通局",
    "name": "鳥松區-大埤路與環湖路、公園路交岔路口",
    "city": "高雄市",
    "town": "高雄市",
    "lon": 120.359301,
    "lat": 22.657907,
    "url": "https://cctv9.kctmc.nat.gov.tw/play/jpg.php?devid={50612ba6-9982-ce64-a9cc-d6fd0965451a}&L=33806a101aa5543ed05e71b6f76648a8"
  },
  {
    "id": "C000032",
    "org": "各縣市交通局",
    "name": "旗津三路、中洲二路207巷",
    "city": "高雄市",
    "town": "高雄市",
    "lon": 120.284843,
    "lat": 22.589625,
    "url": "https://cctv9.kctmc.nat.gov.tw/play/jpg.php?devid={cde9c5ab-461f-c324-a541-82b2acef39f2}&L=33806a101aa5543ed05e71b6f76648a8"
  },
  {
    "id": "C000153",
    "org": "各縣市交通局",
    "name": "台88鳳山交流道、鳳頂路東側",
    "city": "高雄市",
    "town": "高雄市",
    "lon": 120.35889,
    "lat": 22.59011,
    "url": "https://cctv4.kctmc.nat.gov.tw/66435e93"
  },
  {
    "id": "C000274",
    "org": "各縣市交通局",
    "name": "鳥松區-中正路與大埤路、神農路交岔路口",
    "city": "高雄市",
    "town": "高雄市",
    "lon": 120.364145,
    "lat": 22.659316,
    "url": "https://cctv6.kctmc.nat.gov.tw/2c740823"
  },
  {
    "id": "C700003",
    "org": "各縣市交通局",
    "name": "中華路、延平一路",
    "city": "高雄市",
    "town": "高雄市",
    "lon": 120.48485,
    "lat": 22.882146,
    "url": "https://cctv4.kctmc.nat.gov.tw/2f22608a"
  },
  {
    "id": "C700002",
    "org": "各縣市交通局",
    "name": "旗屏一路、延平二路",
    "city": "高雄市",
    "town": "高雄市",
    "lon": 120.495408,
    "lat": 22.883015,
    "url": "https://cctv4.kctmc.nat.gov.tw/143312d8"
  },
  {
    "id": "C700001",
    "org": "各縣市交通局",
    "name": "旗屏一路、旗屏路",
    "city": "高雄市",
    "town": "高雄市",
    "lon": 120.494871,
    "lat": 22.869394,
    "url": "https://cctv4.kctmc.nat.gov.tw/570ff02c"
  },
  {
    "id": "C000039",
    "org": "各縣市交通局",
    "name": "民族一路、明誠二路",
    "city": "高雄市",
    "town": "高雄市",
    "lon": 120.31557,
    "lat": 22.65972,
    "url": "https://cctv3.kctmc.nat.gov.tw/338193de"
  },
  {
    "id": "C000038",
    "org": "各縣市交通局",
    "name": "大中一路、榮總路",
    "city": "高雄市",
    "town": "高雄市",
    "lon": 120.32181,
    "lat": 22.67751,
    "url": "https://cctv4.kctmc.nat.gov.tw/b2d221a4"
  },
  {
    "id": "C000280",
    "org": "各縣市交通局",
    "name": "鹽埕區-大勇路與公園二路交岔路口",
    "city": "高雄市",
    "town": "高雄市",
    "lon": 120.282696,
    "lat": 22.621597,
    "url": "https://cctv9.kctmc.nat.gov.tw/play/jpg.php?devid={412f4a62-a7b2-5524-3178-8f83a4288cf2}&L=33806a101aa5543ed05e71b6f76648a8"
  },
  {
    "id": "C710055",
    "org": "各縣市交通局",
    "name": "台29線-台29線79K+950(75K+950)",
    "city": "高雄市",
    "town": "高雄市",
    "lon": 120.44226,
    "lat": 22.71374,
    "url": "https://thbcctv11.thb.gov.tw/T29-79K+950"
  },
  {
    "id": "C999111",
    "org": "各縣市交通局",
    "name": "鼎山街、大順二路",
    "city": "高雄市",
    "town": "高雄市",
    "lon": 120.319062,
    "lat": 22.653457,
    "url": "https://cctv8.kctmc.nat.gov.tw/d50974e0"
  },
  {
    "id": "C710054",
    "org": "各縣市交通局",
    "name": "台29線-台29線85K+280(85K+280)",
    "city": "高雄市",
    "town": "高雄市",
    "lon": 120.44398,
    "lat": 22.71855,
    "url": "https://thbcctv13.thb.gov.tw/T29-85K+280"
  },
  {
    "id": "C999110",
    "org": "各縣市交通局",
    "name": "河堤路、大順一路",
    "city": "高雄市",
    "town": "高雄市",
    "lon": 120.312014,
    "lat": 22.656086,
    "url": "https://cctv8.kctmc.nat.gov.tw/5767d2c9"
  },
  {
    "id": "C000161",
    "org": "各縣市交通局",
    "name": "岡山南路、介壽東路",
    "city": "高雄市",
    "town": "高雄市",
    "lon": 120.29709,
    "lat": 22.78457,
    "url": "https://cctv7.kctmc.nat.gov.tw/play/jpg.php?devid={79d8a119-9164-1f84-a1c8-da4f5fb99508}&L=dfe8885c1acbe4c5e5fb91e6d9bd3724"
  },
  {
    "id": "C000282",
    "org": "各縣市交通局",
    "name": "大寮區-內坑路、高72路口",
    "city": "高雄市",
    "town": "高雄市",
    "lon": 120.389706,
    "lat": 22.590462,
    "url": "https://cctv3.kctmc.nat.gov.tw/ff35b4ca"
  },
  {
    "id": "C000281",
    "org": "各縣市交通局",
    "name": "苓雅區-成功二路與林森四路交岔路口",
    "city": "高雄市",
    "town": "高雄市",
    "lon": 120.299965,
    "lat": 22.608317,
    "url": "https://cctv9.kctmc.nat.gov.tw/play/jpg.php?devid={4cdaa31c-c11a-27c4-5d14-fd0544eaafa2}&L=33806a101aa5543ed05e71b6f76648a8"
  },
  {
    "id": "C710056",
    "org": "各縣市交通局",
    "name": "台1線-高雄市仁武區高楠公路（近八德二路）-南向（順樁）(371K+450)",
    "city": "高雄市",
    "town": "高雄市",
    "lon": 120.32314,
    "lat": 22.70009,
    "url": "https://thbcctv11.thb.gov.tw/T1-371K+450"
  },
  {
    "id": "C710051",
    "org": "各縣市交通局",
    "name": "台1線-湖內區中山路一段17號前分隔島-北向（逆樁）",
    "city": "高雄市",
    "town": "高雄市",
    "lon": 120.25361,
    "lat": 22.87417,
    "url": "https://thbcctv11.thb.gov.tw/T1-350K+400"
  },
  {
    "id": "C710050",
    "org": "各縣市交通局",
    "name": "台28線-台28線15K+150(15K+150)",
    "city": "高雄市",
    "town": "高雄市",
    "lon": 120.36557,
    "lat": 22.87679,
    "url": "https://thbcctv11.thb.gov.tw/T28-15K+150"
  },
  {
    "id": "C999114",
    "org": "各縣市交通局",
    "name": "建興路、大順二路",
    "city": "高雄市",
    "town": "高雄市",
    "lon": 120.326391,
    "lat": 22.643693,
    "url": "https://cctv8.kctmc.nat.gov.tw/78d6f5b8"
  },
  {
    "id": "C999113",
    "org": "各縣市交通局",
    "name": "大豐二路、大順二路",
    "city": "高雄市",
    "town": "高雄市",
    "lon": 120.325529,
    "lat": 22.646462,
    "url": "https://cctv8.kctmc.nat.gov.tw/f2736945"
  },
  {
    "id": "C710052",
    "org": "各縣市交通局",
    "name": "台17線-湖內區和平路6號旁-南向（順樁）(194K+750)",
    "city": "高雄市",
    "town": "高雄市",
    "lon": 120.22514,
    "lat": 22.87479,
    "url": "https://thbcctv11.thb.gov.tw/T17-194K+750"
  },
  {
    "id": "C999112",
    "org": "各縣市交通局",
    "name": "莊敬路、大順二路",
    "city": "高雄市",
    "town": "高雄市",
    "lon": 120.320822,
    "lat": 22.652192,
    "url": "https://cctv8.kctmc.nat.gov.tw/f1db9d10"
  },
  {
    "id": "C000145",
    "org": "各縣市交通局",
    "name": "漁港路、草衙二路",
    "city": "高雄市",
    "town": "高雄市",
    "lon": 120.3229,
    "lat": 22.58181,
    "url": "https://cctv9.kctmc.nat.gov.tw/play/jpg.php?devid={3ed6e32d-5189-ad64-1dee-79f8d4a37e97}&L=33806a101aa5543ed05e71b6f76648a8"
  },
  {
    "id": "C000266",
    "org": "各縣市交通局",
    "name": "林園區-鳳林路一段與東林東路交岔路口",
    "city": "高雄市",
    "town": "高雄市",
    "lon": 120.397624,
    "lat": 22.503771,
    "url": "https://cctv9.kctmc.nat.gov.tw/play/jpg.php?devid={20acd921-4ab1-20b4-4d9d-cd46fc378e73}&L=33806a101aa5543ed05e71b6f76648a8"
  },
  {
    "id": "C000023",
    "org": "各縣市交通局",
    "name": "成功二路、擴建路",
    "city": "高雄市",
    "town": "高雄市",
    "lon": 120.30639,
    "lat": 22.59191,
    "url": "https://cctv2.kctmc.nat.gov.tw/0a711fe6"
  },
  {
    "id": "C000144",
    "org": "各縣市交通局",
    "name": "旗津一路、廣澤街、敦和街",
    "city": "高雄市",
    "town": "高雄市",
    "lon": 120.29915,
    "lat": 22.57064,
    "url": "https://cctv4.kctmc.nat.gov.tw/97e596ff"
  },
  {
    "id": "C000026",
    "org": "各縣市交通局",
    "name": "中華三路、民生二路(東南角)",
    "city": "高雄市",
    "town": "高雄市",
    "lon": 120.29739,
    "lat": 22.62578,
    "url": "https://cctv6.kctmc.nat.gov.tw/cf116a1c"
  },
  {
    "id": "C000147",
    "org": "各縣市交通局",
    "name": "明誠一路、金鼎路",
    "city": "高雄市",
    "town": "高雄市",
    "lon": 120.33052,
    "lat": 22.66013,
    "url": "https://cctv2.kctmc.nat.gov.tw/4930831c"
  },
  {
    "id": "C000025",
    "org": "各縣市交通局",
    "name": "中華三路、民生二路(東北角)",
    "city": "高雄市",
    "town": "高雄市",
    "lon": 120.29713,
    "lat": 22.62598,
    "url": "https://cctv2.kctmc.nat.gov.tw/fbcb389f"
  },
  {
    "id": "C000020",
    "org": "各縣市交通局",
    "name": "河東路、五福三路",
    "city": "高雄市",
    "town": "高雄市",
    "lon": 120.29095,
    "lat": 22.62069,
    "url": "https://cctv4.kctmc.nat.gov.tw/335e2702"
  },
  {
    "id": "C000140",
    "org": "各縣市交通局",
    "name": "成功二路、復興三路",
    "city": "高雄市",
    "town": "高雄市",
    "lon": 120.3012,
    "lat": 22.60529,
    "url": "https://cctv3.kctmc.nat.gov.tw/7c99d95c"
  },
  {
    "id": "C000261",
    "org": "各縣市交通局",
    "name": "大寮區-鳳林二路與新厝路交岔路口",
    "city": "高雄市",
    "town": "高雄市",
    "lon": 120.411772,
    "lat": 22.561202,
    "url": "https://cctv9.kctmc.nat.gov.tw/play/jpg.php?devid={2b197495-e6ff-a804-c9ff-2f09048b9f94}&L=33806a101aa5543ed05e71b6f76648a8"
  },
  {
    "id": "C000022",
    "org": "各縣市交通局",
    "name": "武營路、三多一路",
    "city": "高雄市",
    "town": "高雄市",
    "lon": 120.3359,
    "lat": 22.62398,
    "url": "https://cctv2.kctmc.nat.gov.tw/a7d37296"
  },
  {
    "id": "C000021",
    "org": "各縣市交通局",
    "name": "中山四路、平和東路",
    "city": "高雄市",
    "town": "高雄市",
    "lon": 120.33828,
    "lat": 22.56998,
    "url": "https://cctv2.kctmc.nat.gov.tw/c2b6db7f"
  },
  {
    "id": "C000142",
    "org": "各縣市交通局",
    "name": "金福路、平和路(草衙三路)",
    "city": "高雄市",
    "town": "高雄市",
    "lon": 120.32853,
    "lat": 22.57106,
    "url": "https://cctv4.kctmc.nat.gov.tw/2c95f08f"
  },
  {
    "id": "C710038",
    "org": "各縣市交通局",
    "name": "台20線-甲仙區文化路47號邊(58K+700)",
    "city": "高雄市",
    "town": "高雄市",
    "lon": 120.58806,
    "lat": 23.08167,
    "url": "https://thbcctv11.thb.gov.tw/T20-58K+700"
  },
  {
    "id": "C700014",
    "org": "各縣市交通局",
    "name": "澄觀路、水管路三段西側",
    "city": "高雄市",
    "town": "高雄市",
    "lon": 120.35957,
    "lat": 22.703672,
    "url": "https://cctv7.kctmc.nat.gov.tw/play/jpg.php?devid={a56fa795-451e-5024-017c-ed32f82934d1}&L=dfe8885c1acbe4c5e5fb91e6d9bd3724"
  },
  {
    "id": "C700013",
    "org": "各縣市交通局",
    "name": "澄觀路、水管路三段東側",
    "city": "高雄市",
    "town": "高雄市",
    "lon": 120.360117,
    "lat": 22.703197,
    "url": "https://cctv7.kctmc.nat.gov.tw/play/jpg.php?devid={64f00ea0-b4d9-6fc4-fdc7-8f5d79c3f687}&L=dfe8885c1acbe4c5e5fb91e6d9bd3724"
  },
  {
    "id": "C700011",
    "org": "各縣市交通局",
    "name": "鳳東路(台22)、義大路",
    "city": "高雄市",
    "town": "高雄市",
    "lon": 120.367799,
    "lat": 22.760749,
    "url": "https://cctv4.kctmc.nat.gov.tw/f7ad8f9a"
  },
  {
    "id": "C000028",
    "org": "各縣市交通局",
    "name": "中華四路、三多四路",
    "city": "高雄市",
    "town": "高雄市",
    "lon": 120.30213,
    "lat": 22.61325,
    "url": "https://cctv2.kctmc.nat.gov.tw/db9c47e1"
  },
  {
    "id": "C000149",
    "org": "各縣市交通局",
    "name": "旗楠路、楠梓交流道",
    "city": "高雄市",
    "town": "高雄市",
    "lon": 120.33497,
    "lat": 22.73781,
    "url": "https://cctv3.kctmc.nat.gov.tw/5a9e8fda"
  },
  {
    "id": "C000269",
    "org": "各縣市交通局",
    "name": "林園區-沿海路二段與王公路、東林西路交岔路口",
    "city": "高雄市",
    "town": "高雄市",
    "lon": 120.381751,
    "lat": 22.503426,
    "url": "https://cctv9.kctmc.nat.gov.tw/play/jpg.php?devid={d798ffbd-19fc-da94-7192-9911069c2993}&L=33806a101aa5543ed05e71b6f76648a8"
  },
  {
    "id": "C000029",
    "org": "各縣市交通局",
    "name": "旗津三路、安樂巷(中洲三路687巷)",
    "city": "高雄市",
    "town": "高雄市",
    "lon": 120.269,
    "lat": 22.60913,
    "url": "https://cctv2.kctmc.nat.gov.tw/1bf7c662"
  },
  {
    "id": "C700009",
    "org": "各縣市交通局",
    "name": "旗南三路、內湖巷",
    "city": "高雄市",
    "town": "高雄市",
    "lon": 120.458967,
    "lat": 22.799387,
    "url": "https://cctv4.kctmc.nat.gov.tw/0d6724a3"
  },
  {
    "id": "C700008",
    "org": "各縣市交通局",
    "name": "延平一路、大同街",
    "city": "高雄市",
    "town": "高雄市",
    "lon": 120.483069,
    "lat": 22.883559,
    "url": "https://cctv7.kctmc.nat.gov.tw/play/jpg.php?devid={a8208811-fd52-ca64-f19c-e5bd2760ca0b}&L=dfe8885c1acbe4c5e5fb91e6d9bd3724"
  },
  {
    "id": "C700006",
    "org": "各縣市交通局",
    "name": "中華路、旗屏路",
    "city": "高雄市",
    "town": "高雄市",
    "lon": 120.483091,
    "lat": 22.87922,
    "url": "https://cctv7.kctmc.nat.gov.tw/play/jpg.php?devid={ff39948d-cf27-9c94-0108-49d10d808fd9}&L=dfe8885c1acbe4c5e5fb91e6d9bd3724"
  },
  {
    "id": "C700005",
    "org": "各縣市交通局",
    "name": "旗南一路、中華路",
    "city": "高雄市",
    "town": "高雄市",
    "lon": 120.474143,
    "lat": 22.872755,
    "url": "https://cctv7.kctmc.nat.gov.tw/play/jpg.php?devid={7fb80b68-910c-0904-01a7-9ab3038b2c1b}&L=dfe8885c1acbe4c5e5fb91e6d9bd3724"
  },
  {
    "id": "C710043",
    "org": "各縣市交通局",
    "name": "台29線-甲仙區中園路200號(38K+200)",
    "city": "高雄市",
    "town": "高雄市",
    "lon": 120.57148,
    "lat": 23.06286,
    "url": "https://thbcctv25.thb.gov.tw/T29-38K+200"
  },
  {
    "id": "C000271",
    "org": "各縣市交通局",
    "name": "小港區-沿海三路與沿海四路交岔路口",
    "city": "高雄市",
    "town": "高雄市",
    "lon": 120.361222,
    "lat": 22.513115,
    "url": "https://cctv9.kctmc.nat.gov.tw/play/jpg.php?devid={6a53c72e-a388-4414-d1e7-9e36edf2b32c}&L=33806a101aa5543ed05e71b6f76648a8"
  },
  {
    "id": "C710046",
    "org": "各縣市交通局",
    "name": "台28線-美濃區中興路一段551號前西向逆樁(35K+500)",
    "city": "高雄市",
    "town": "高雄市",
    "lon": 120.53472,
    "lat": 22.88556,
    "url": "https://thbcctv11.thb.gov.tw/T28-35K+500"
  },
  {
    "id": "C710045",
    "org": "各縣市交通局",
    "name": "台29線-旗山區永和里旗甲路一段378號前(63K+450)",
    "city": "高雄市",
    "town": "高雄市",
    "lon": 120.50669,
    "lat": 22.9394,
    "url": "https://thbcctv11.thb.gov.tw/T29-63K+450"
  },
  {
    "id": "C710040",
    "org": "各縣市交通局",
    "name": "台25線-大寮區鳳林三路10號(6K+900)",
    "city": "高雄市",
    "town": "高雄市",
    "lon": 120.4025,
    "lat": 22.53472,
    "url": "https://thbcctv11.thb.gov.tw/T25-6K+900"
  },
  {
    "id": "C710042",
    "org": "各縣市交通局",
    "name": "台20線-甲仙區文化路47號邊-西向（逆樁）(58K+700)",
    "city": "高雄市",
    "town": "高雄市",
    "lon": 120.58806,
    "lat": 23.08167,
    "url": "https://thbcctv11.thb.gov.tw/T20-58K+700"
  },
  {
    "id": "C710041",
    "org": "各縣市交通局",
    "name": "台29線-甲仙區小林村008鄰五里路56號旁(23K+900)",
    "city": "高雄市",
    "town": "高雄市",
    "lon": 120.63659,
    "lat": 23.15292,
    "url": "https://thbcctv11.thb.gov.tw/T29-23K+900"
  },
  {
    "id": "C000013",
    "org": "各縣市交通局",
    "name": "民族一路、華夏路",
    "city": "高雄市",
    "town": "高雄市",
    "lon": 120.32091,
    "lat": 22.68789,
    "url": "https://cctv2.kctmc.nat.gov.tw/1cf29d9d"
  },
  {
    "id": "C000012",
    "org": "各縣市交通局",
    "name": "中正路交流道北上入口",
    "city": "高雄市",
    "town": "高雄市",
    "lon": 120.33662,
    "lat": 22.62668,
    "url": "https://cctv2.kctmc.nat.gov.tw/367d924c"
  },
  {
    "id": "C000133",
    "org": "各縣市交通局",
    "name": "建國一路-高速公路(西側)",
    "city": "高雄市",
    "town": "高雄市",
    "lon": 120.33558,
    "lat": 22.6308,
    "url": "https://cctv4.kctmc.nat.gov.tw/bb8066bb"
  },
  {
    "id": "C000136",
    "org": "各縣市交通局",
    "name": "旗津渡輪站",
    "city": "高雄市",
    "town": "高雄市",
    "lon": 120.269094,
    "lat": 22.61412,
    "url": "https://cctv4.kctmc.nat.gov.tw/20e79ac7"
  },
  {
    "id": "C000014",
    "org": "各縣市交通局",
    "name": "民族一路、大順二路",
    "city": "高雄市",
    "town": "高雄市",
    "lon": 120.31554,
    "lat": 22.65543,
    "url": "https://cctv4.kctmc.nat.gov.tw/9e00aa3e"
  },
  {
    "id": "C000135",
    "org": "各縣市交通局",
    "name": "大業北路、中鋼路",
    "city": "高雄市",
    "town": "高雄市",
    "lon": 120.35267,
    "lat": 22.55786,
    "url": "https://cctv3.kctmc.nat.gov.tw/cefa42a0"
  },
  {
    "id": "C000130",
    "org": "各縣市交通局",
    "name": "五福四路、河西路",
    "city": "高雄市",
    "town": "高雄市",
    "lon": 120.28948,
    "lat": 22.62079,
    "url": "https://cctv4.kctmc.nat.gov.tw/d3d8fb44"
  },
  {
    "id": "C000250",
    "org": "各縣市交通局",
    "name": "彌陀區-中正東路中正南路口",
    "city": "高雄市",
    "town": "高雄市",
    "lon": 120.252796,
    "lat": 22.775548,
    "url": "https://cctv1.kctmc.nat.gov.tw/ca18517c"
  },
  {
    "id": "C710025",
    "org": "各縣市交通局",
    "name": "台17線-林園區中門路200號前(243K+400)",
    "city": "高雄市",
    "town": "高雄市",
    "lon": 120.36334,
    "lat": 22.50977,
    "url": "https://thbcctv11.thb.gov.tw/T17-243K+400"
  },
  {
    "id": "C000011",
    "org": "各縣市交通局",
    "name": "中正路交流道南下入口",
    "city": "高雄市",
    "town": "高雄市",
    "lon": 120.3358,
    "lat": 22.62693,
    "url": "https://cctv6.kctmc.nat.gov.tw/77c23c50"
  },
  {
    "id": "C000132",
    "org": "各縣市交通局",
    "name": "建國一路-高速公路(東側)",
    "city": "高雄市",
    "town": "高雄市",
    "lon": 120.33726,
    "lat": 22.63028,
    "url": "https://cctv9.kctmc.nat.gov.tw/play/jpg.php?devid={af496970-a532-3d34-e91c-85d1d9abdefe}&L=33806a101aa5543ed05e71b6f76648a8"
  },
  {
    "id": "C000131",
    "org": "各縣市交通局",
    "name": "建國二路、民族一路",
    "city": "高雄市",
    "town": "高雄市",
    "lon": 120.31368,
    "lat": 22.63732,
    "url": "https://cctv4.kctmc.nat.gov.tw/d8b240d7"
  },
  {
    "id": "C000252",
    "org": "各縣市交通局",
    "name": "岡山區-本洲路289號前路燈桿",
    "city": "高雄市",
    "town": "高雄市",
    "lon": 120.263225,
    "lat": 22.807378,
    "url": "https://cctv1.kctmc.nat.gov.tw/3fbaad62"
  },
  {
    "id": "C000017",
    "org": "各縣市交通局",
    "name": "民族二路、河南一路",
    "city": "高雄市",
    "town": "高雄市",
    "lon": 120.31374,
    "lat": 22.63649,
    "url": "https://cctv3.kctmc.nat.gov.tw/74fee170"
  },
  {
    "id": "C000138",
    "org": "各縣市交通局",
    "name": "成功二路、時代大道",
    "city": "高雄市",
    "town": "高雄市",
    "lon": 120.30485,
    "lat": 22.59571,
    "url": "https://cctv3.kctmc.nat.gov.tw/205190e4"
  },
  {
    "id": "C000016",
    "org": "各縣市交通局",
    "name": "民族一路、建工路(東北角)",
    "city": "高雄市",
    "town": "高雄市",
    "lon": 120.31499,
    "lat": 22.64772,
    "url": "https://cctv2.kctmc.nat.gov.tw/cc93eb05"
  },
  {
    "id": "C000137",
    "org": "各縣市交通局",
    "name": "中華五路、時代大道",
    "city": "高雄市",
    "town": "高雄市",
    "lon": 120.30844,
    "lat": 22.59689,
    "url": "https://cctv1.kctmc.nat.gov.tw/27e5c086"
  },
  {
    "id": "C000018",
    "org": "各縣市交通局",
    "name": "民族二路、八德一路",
    "city": "高雄市",
    "town": "高雄市",
    "lon": 120.31368,
    "lat": 22.63528,
    "url": "https://cctv2.kctmc.nat.gov.tw/f87cdae1"
  },
  {
    "id": "C000139",
    "org": "各縣市交通局",
    "name": "成功二路、新光路",
    "city": "高雄市",
    "town": "高雄市",
    "lon": 120.29913,
    "lat": 22.61055,
    "url": "https://cctv3.kctmc.nat.gov.tw/eb212f16"
  },
  {
    "id": "C710033",
    "org": "各縣市交通局",
    "name": "台20線-六龜區裕濃路91-2號前(72K+800)",
    "city": "高雄市",
    "town": "高雄市",
    "lon": 120.672713,
    "lat": 23.072592,
    "url": "https://thbcctv12.thb.gov.tw/T20-72K+800"
  },
  {
    "id": "C710032",
    "org": "各縣市交通局",
    "name": "台27線-六龜區新發里和平路302支11號前(4K+300)",
    "city": "高雄市",
    "town": "高雄市",
    "lon": 120.66756,
    "lat": 23.04268,
    "url": "https://thbcctv11.thb.gov.tw/T27-4K+300"
  },
  {
    "id": "C710035",
    "org": "各縣市交通局",
    "name": "台20線-六龜區寶來中正路21號(78K+750)",
    "city": "高雄市",
    "town": "高雄市",
    "lon": 120.69796,
    "lat": 23.10739,
    "url": "https://thbcctv11.thb.gov.tw/T20-78K+750-1"
  },
  {
    "id": "C710031",
    "org": "各縣市交通局",
    "name": "台27線-六龜區中興村尾莊16之1號(11K+350)",
    "city": "高雄市",
    "town": "高雄市",
    "lon": 120.64298,
    "lat": 22.99593,
    "url": "https://thbcctv11.thb.gov.tw/T27-11K+350"
  },
  {
    "id": "C000002",
    "org": "各縣市交通局",
    "name": "中華二路、九如三路(西南角)",
    "city": "高雄市",
    "town": "高雄市",
    "lon": 120.29132,
    "lat": 22.64191,
    "url": "https://cctv9.kctmc.nat.gov.tw/play/jpg.php?devid={dab15121-0c9b-6224-993f-3150f8c8dac9}&L=33806a101aa5543ed05e71b6f76648a8"
  },
  {
    "id": "C000123",
    "org": "各縣市交通局",
    "name": "蓮海路-中山大學大門停車場出口",
    "city": "高雄市",
    "town": "高雄市",
    "lon": 120.266819,
    "lat": 22.617735,
    "url": "https://cctv7.kctmc.nat.gov.tw/play/jpg.php?devid={20d173b5-6700-9494-7970-b02a976f17ae}&L=dfe8885c1acbe4c5e5fb91e6d9bd3724"
  },
  {
    "id": "C000244",
    "org": "各縣市交通局",
    "name": "路竹區-中山路中華路口",
    "city": "高雄市",
    "town": "高雄市",
    "lon": 120.260725,
    "lat": 22.857689,
    "url": "https://cctv1.kctmc.nat.gov.tw/2a8cf57e"
  },
  {
    "id": "C000365",
    "org": "各縣市交通局",
    "name": "光復路、五權路",
    "city": "高雄市",
    "town": "高雄市",
    "lon": 120.354142,
    "lat": 22.629088,
    "url": "https://cctv6.kctmc.nat.gov.tw/465b35ba"
  },
  {
    "id": "C000001",
    "org": "各縣市交通局",
    "name": "大中高架道往東",
    "city": "高雄市",
    "town": "高雄市",
    "lon": 120.30497,
    "lat": 22.68577,
    "url": "https://cctv2.kctmc.nat.gov.tw/e8ddc6a2"
  },
  {
    "id": "C000122",
    "org": "各縣市交通局",
    "name": "哨船街、臨海二路",
    "city": "高雄市",
    "town": "高雄市",
    "lon": 120.26951,
    "lat": 22.62447,
    "url": "https://cctv9.kctmc.nat.gov.tw/play/jpg.php?devid={9c06653d-9fa0-e844-f94f-3b7bc3df56b2}&L=33806a101aa5543ed05e71b6f76648a8"
  },
  {
    "id": "C000243",
    "org": "各縣市交通局",
    "name": "路竹區-中山南路本洲五街口",
    "city": "高雄市",
    "town": "高雄市",
    "lon": 120.269866,
    "lat": 22.82059,
    "url": "https://cctv1.kctmc.nat.gov.tw/8ba674d3"
  },
  {
    "id": "C000364",
    "org": "各縣市交通局",
    "name": "光華路、青年路一段",
    "city": "高雄市",
    "town": "高雄市",
    "lon": 120.349335,
    "lat": 22.62204,
    "url": "https://cctv6.kctmc.nat.gov.tw/db91cb6d"
  },
  {
    "id": "C000004",
    "org": "各縣市交通局",
    "name": "中華三路、建國三路",
    "city": "高雄市",
    "town": "高雄市",
    "lon": 120.29296,
    "lat": 22.63687,
    "url": "https://cctv9.kctmc.nat.gov.tw/play/jpg.php?devid={2fb9994a-0fe9-4334-f557-08e1569a3608}&L=33806a101aa5543ed05e71b6f76648a8"
  },
  {
    "id": "C000125",
    "org": "各縣市交通局",
    "name": "鼓山一路、臨海二路",
    "city": "高雄市",
    "town": "高雄市",
    "lon": 120.27501,
    "lat": 22.62128,
    "url": "https://cctv9.kctmc.nat.gov.tw/play/jpg.php?devid={39622058-9a86-9324-2dc7-e982cca49f9d}&L=33806a101aa5543ed05e71b6f76648a8"
  },
  {
    "id": "C000367",
    "org": "各縣市交通局",
    "name": "議會路、自由路",
    "city": "高雄市",
    "town": "高雄市",
    "lon": 120.347763,
    "lat": 22.625274,
    "url": "https://cctv6.kctmc.nat.gov.tw/aa9f613b"
  },
  {
    "id": "C000003",
    "org": "各縣市交通局",
    "name": "中華二路、九如二路(東南角)",
    "city": "高雄市",
    "town": "高雄市",
    "lon": 120.29183,
    "lat": 22.64189,
    "url": "https://cctv6.kctmc.nat.gov.tw/96f73cec"
  },
  {
    "id": "C000124",
    "org": "各縣市交通局",
    "name": "鼓山渡輪站",
    "city": "高雄市",
    "town": "高雄市",
    "lon": 120.27016,
    "lat": 22.61977,
    "url": "https://cctv9.kctmc.nat.gov.tw/play/jpg.php?devid={c377c73b-878b-2b14-798e-bbc4edc60900}&L=33806a101aa5543ed05e71b6f76648a8"
  },
  {
    "id": "C000245",
    "org": "各縣市交通局",
    "name": "湖內區-中山路一段東方路口",
    "city": "高雄市",
    "town": "高雄市",
    "lon": 120.24993,
    "lat": 22.880752,
    "url": "https://cctv6.kctmc.nat.gov.tw/3a3bad81"
  },
  {
    "id": "C000366",
    "org": "各縣市交通局",
    "name": "中正一路、國軍802醫院前",
    "city": "高雄市",
    "town": "高雄市",
    "lon": 120.340767,
    "lat": 22.625218,
    "url": "https://cctv1.kctmc.nat.gov.tw/a63a6101"
  },
  {
    "id": "C000361",
    "org": "各縣市交通局",
    "name": "新富路、武營路",
    "city": "高雄市",
    "town": "高雄市",
    "lon": 120.337154,
    "lat": 22.612634,
    "url": "https://cctv6.kctmc.nat.gov.tw/9f7f6e1b"
  },
  {
    "id": "C000360",
    "org": "各縣市交通局",
    "name": "新富路、南京路",
    "city": "高雄市",
    "town": "高雄市",
    "lon": 120.345519,
    "lat": 22.613111,
    "url": "https://cctv6.kctmc.nat.gov.tw/fe2a3602"
  },
  {
    "id": "C000121",
    "org": "各縣市交通局",
    "name": "翠華路、華榮路",
    "city": "高雄市",
    "town": "高雄市",
    "lon": 120.29112,
    "lat": 22.67207,
    "url": "https://cctv9.kctmc.nat.gov.tw/play/jpg.php?devid={7549e44a-dc13-77b4-65de-70164b652a85}&L=33806a101aa5543ed05e71b6f76648a8"
  },
  {
    "id": "C000242",
    "org": "各縣市交通局",
    "name": "岡山區-岡山路河華路，岡山路上路燈桿",
    "city": "高雄市",
    "town": "高雄市",
    "lon": 120.292094,
    "lat": 22.801751,
    "url": "https://cctv4.kctmc.nat.gov.tw/688ab405"
  },
  {
    "id": "C000363",
    "org": "各縣市交通局",
    "name": "自由路、青年路一段",
    "city": "高雄市",
    "town": "高雄市",
    "lon": 120.34932,
    "lat": 22.625585,
    "url": "https://cctv6.kctmc.nat.gov.tw/a4d8411f"
  },
  {
    "id": "C000120",
    "org": "各縣市交通局",
    "name": "海功路、軍校路",
    "city": "高雄市",
    "town": "高雄市",
    "lon": 120.29246,
    "lat": 22.69369,
    "url": "https://cctv4.kctmc.nat.gov.tw/b4b60338"
  },
  {
    "id": "C000241",
    "org": "各縣市交通局",
    "name": "岡山區-岡山路河華路，河華路上控制器旁號誌桿",
    "city": "高雄市",
    "town": "高雄市",
    "lon": 120.29215,
    "lat": 22.801573,
    "url": "https://cctv1.kctmc.nat.gov.tw/f75bb280"
  },
  {
    "id": "C000362",
    "org": "各縣市交通局",
    "name": "中山西路、青年路二段",
    "city": "高雄市",
    "town": "高雄市",
    "lon": 120.349198,
    "lat": 22.627766,
    "url": "https://cctv6.kctmc.nat.gov.tw/a11dfaba"
  },
  {
    "id": "C000009",
    "org": "各縣市交通局",
    "name": "楠陽路、鳳楠路",
    "city": "高雄市",
    "town": "高雄市",
    "lon": 120.33031,
    "lat": 22.72414,
    "url": "https://cctv2.kctmc.nat.gov.tw/568df0f1"
  },
  {
    "id": "C000127",
    "org": "各縣市交通局",
    "name": "中正四路、河西路",
    "city": "高雄市",
    "town": "高雄市",
    "lon": 120.28781,
    "lat": 22.6267,
    "url": "https://cctv2.kctmc.nat.gov.tw/a1c8677c"
  },
  {
    "id": "C000248",
    "org": "各縣市交通局",
    "name": "永安區-保安路維新路口",
    "city": "高雄市",
    "town": "高雄市",
    "lon": 120.243108,
    "lat": 22.808169,
    "url": "https://cctv1.kctmc.nat.gov.tw/cc935de5"
  },
  {
    "id": "C000369",
    "org": "各縣市交通局",
    "name": "澄清路、中山西路",
    "city": "高雄市",
    "town": "高雄市",
    "lon": 120.34445,
    "lat": 22.62815,
    "url": "https://cctv2.kctmc.nat.gov.tw/f89643e9"
  },
  {
    "id": "C000005",
    "org": "各縣市交通局",
    "name": "中華三路、七賢二路",
    "city": "高雄市",
    "town": "高雄市",
    "lon": 120.29457,
    "lat": 22.63275,
    "url": "https://cctv2.kctmc.nat.gov.tw/0dfc3403"
  },
  {
    "id": "C000126",
    "org": "各縣市交通局",
    "name": "五福四路、鼓山一路",
    "city": "高雄市",
    "town": "高雄市",
    "lon": 120.27809,
    "lat": 22.62638,
    "url": "https://cctv4.kctmc.nat.gov.tw/59887ec6"
  },
  {
    "id": "C000247",
    "org": "各縣市交通局",
    "name": "永安區-保安路保寧路口",
    "city": "高雄市",
    "town": "高雄市",
    "lon": 120.234793,
    "lat": 22.835858,
    "url": "https://cctv9.kctmc.nat.gov.tw/play/jpg.php?devid={0eff7be3-41f6-3814-4d2f-dd921c5cd86b}&L=33806a101aa5543ed05e71b6f76648a8"
  },
  {
    "id": "C000368",
    "org": "各縣市交通局",
    "name": "建國一路、建軍路",
    "city": "高雄市",
    "town": "高雄市",
    "lon": 120.34225,
    "lat": 22.62844,
    "url": "https://cctv3.kctmc.nat.gov.tw/77eb2b78"
  },
  {
    "id": "C000008",
    "org": "各縣市交通局",
    "name": "中華一路、大順一路",
    "city": "高雄市",
    "town": "高雄市",
    "lon": 120.29219,
    "lat": 22.6531,
    "url": "https://cctv2.kctmc.nat.gov.tw/648b7b0d"
  },
  {
    "id": "C000007",
    "org": "各縣市交通局",
    "name": "澄清路、九如一路",
    "city": "高雄市",
    "town": "高雄市",
    "lon": 120.34445,
    "lat": 22.63626,
    "url": "https://cctv2.kctmc.nat.gov.tw/c8a1cf66"
  },
  {
    "id": "C000128",
    "org": "各縣市交通局",
    "name": "公園二路、七賢三路",
    "city": "高雄市",
    "town": "高雄市",
    "lon": 120.28026,
    "lat": 22.62283,
    "url": "https://cctv4.kctmc.nat.gov.tw/f6272c2c"
  },
  {
    "id": "C710022",
    "org": "各縣市交通局",
    "name": "台 1(台 1/台 19甲到河華路/岡山路)",
    "city": "高雄市",
    "town": "高雄市",
    "lon": 120.29389,
    "lat": 22.80028,
    "url": "https://thbcctv11.thb.gov.tw/T1-360K+200"
  },
  {
    "id": "C710024",
    "org": "各縣市交通局",
    "name": "台 25(鳳林四路/中山東路32巷到仁愛路/高142)",
    "city": "高雄市",
    "town": "高雄市",
    "lon": 120.3725,
    "lat": 22.6225,
    "url": "https://thbcctv11.thb.gov.tw/T25-2K+050"
  },
  {
    "id": "C999104",
    "org": "各縣市交通局",
    "name": "大順、龍德路口(向北)",
    "city": "高雄市",
    "town": "高雄市",
    "lon": 120.297082,
    "lat": 22.654603,
    "url": "https://cctv8.kctmc.nat.gov.tw/bf861ba6"
  },
  {
    "id": "C710020",
    "org": "各縣市交通局",
    "name": "台 17(華正路/大公路到台 17/台 28)",
    "city": "高雄市",
    "town": "高雄市",
    "lon": 120.22514,
    "lat": 22.87479,
    "url": "https://thbcctv11.thb.gov.tw/T17-194K+750"
  },
  {
    "id": "C999102",
    "org": "各縣市交通局",
    "name": "大順、南屏(向北)",
    "city": "高雄市",
    "town": "高雄市",
    "lon": 120.300086,
    "lat": 22.65529,
    "url": "https://cctv8.kctmc.nat.gov.tw/24283899"
  },
  {
    "id": "C999101",
    "org": "各縣市交通局",
    "name": "大順、南屏(向西)",
    "city": "高雄市",
    "town": "高雄市",
    "lon": 120.300051,
    "lat": 22.655425,
    "url": "https://cctv8.kctmc.nat.gov.tw/e66173c5"
  },
  {
    "id": "C999099",
    "org": "各縣市交通局",
    "name": "龍德路、106巷路口",
    "city": "高雄市",
    "town": "高雄市",
    "lon": 120.300378,
    "lat": 22.654165,
    "url": "https://cctv8.kctmc.nat.gov.tw/4e0de07f"
  },
  {
    "id": "C000097",
    "org": "各縣市交通局",
    "name": "中正一路、凱旋二路",
    "city": "高雄市",
    "town": "高雄市",
    "lon": 120.32166,
    "lat": 22.62998,
    "url": "https://cctv4.kctmc.nat.gov.tw/38cd3775"
  },
  {
    "id": "C000099",
    "org": "各縣市交通局",
    "name": "中正四路、中華三路",
    "city": "高雄市",
    "town": "高雄市",
    "lon": 120.29585,
    "lat": 22.62942,
    "url": "https://cctv4.kctmc.nat.gov.tw/b0164bc5"
  },
  {
    "id": "C000098",
    "org": "各縣市交通局",
    "name": "中山四路、金福路",
    "city": "高雄市",
    "town": "高雄市",
    "lon": 120.33208,
    "lat": 22.57667,
    "url": "https://cctv4.kctmc.nat.gov.tw/dc1f79cf"
  },
  {
    "id": "C000089",
    "org": "各縣市交通局",
    "name": "左營大路、鼓山三路(北門)",
    "city": "高雄市",
    "town": "高雄市",
    "lon": 120.28659,
    "lat": 22.67219,
    "url": "https://cctv4.kctmc.nat.gov.tw/7f88ff35"
  },
  {
    "id": "C000085",
    "org": "各縣市交通局",
    "name": "中正一路、三多一路(建軍路)",
    "city": "高雄市",
    "town": "高雄市",
    "lon": 120.34235,
    "lat": 22.62474,
    "url": "https://cctv4.kctmc.nat.gov.tw/5470f3c8"
  },
  {
    "id": "C000088",
    "org": "各縣市交通局",
    "name": "軍校路、加昌路",
    "city": "高雄市",
    "town": "高雄市",
    "lon": 120.29143,
    "lat": 22.71319,
    "url": "https://cctv4.kctmc.nat.gov.tw/47009f84"
  },
  {
    "id": "C000087",
    "org": "各縣市交通局",
    "name": "中山一路、中正四路",
    "city": "高雄市",
    "town": "高雄市",
    "lon": 120.30191,
    "lat": 22.63136,
    "url": "https://cctv9.kctmc.nat.gov.tw/play/jpg.php?devid={4edaf1e2-8dd6-6044-5dad-eb820d61f5c7}&L=33806a101aa5543ed05e71b6f76648a8"
  },
  {
    "id": "C000093",
    "org": "各縣市交通局",
    "name": "左楠路、中海路",
    "city": "高雄市",
    "town": "高雄市",
    "lon": 120.30254,
    "lat": 22.70087,
    "url": "https://cctv9.kctmc.nat.gov.tw/play/jpg.php?devid={39f5ec89-9430-d9a4-6981-a86581899d4e}&L=33806a101aa5543ed05e71b6f76648a8"
  },
  {
    "id": "C000092",
    "org": "各縣市交通局",
    "name": "中山四路、五甲三路",
    "city": "高雄市",
    "town": "高雄市",
    "lon": 120.32231,
    "lat": 22.58855,
    "url": "https://cctv2.kctmc.nat.gov.tw/60773178"
  },
  {
    "id": "C000095",
    "org": "各縣市交通局",
    "name": "保泰路、瑞隆路",
    "city": "高雄市",
    "town": "高雄市",
    "lon": 120.33907,
    "lat": 22.60611,
    "url": "https://cctv4.kctmc.nat.gov.tw/2dd59883"
  },
  {
    "id": "C000094",
    "org": "各縣市交通局",
    "name": "九如一路、高速公路(東側)",
    "city": "高雄市",
    "town": "高雄市",
    "lon": 120.33758,
    "lat": 22.6375,
    "url": "https://cctv4.kctmc.nat.gov.tw/ac996f46"
  },
  {
    "id": "C000091",
    "org": "各縣市交通局",
    "name": "中山二路、三多三路",
    "city": "高雄市",
    "town": "高雄市",
    "lon": 120.30458,
    "lat": 22.61394,
    "url": "https://cctv2.kctmc.nat.gov.tw/d322dffe"
  },
  {
    "id": "C000090",
    "org": "各縣市交通局",
    "name": "中山三路、時代大道",
    "city": "高雄市",
    "town": "高雄市",
    "lon": 120.31384,
    "lat": 22.5987,
    "url": "https://cctv4.kctmc.nat.gov.tw/fcd4f79a"
  },
  {
    "id": "C999944",
    "org": "各縣市交通局",
    "name": "國道1號 346.79公里處(南向)",
    "city": "高雄市",
    "town": "高雄市",
    "lon": 120.31469,
    "lat": 22.81089,
    "url": "https://cctvs.freeway.gov.tw/live-view/mjpg/video.cgi?camera=100"
  },
  {
    "id": "C999948",
    "org": "各縣市交通局",
    "name": "國道1號 342.435公里處(南向)",
    "city": "高雄市",
    "town": "高雄市",
    "lon": 120.29558,
    "lat": 22.84559,
    "url": "https://cctvs.freeway.gov.tw/live-view/mjpg/video.cgi?camera=406"
  },
  {
    "id": "C999947",
    "org": "各縣市交通局",
    "name": "國道1號 361.65公里處(北向)",
    "city": "高雄市",
    "town": "高雄市",
    "lon": 120.32887,
    "lat": 22.68027,
    "url": "https://cctvs.freeway.gov.tw/live-view/mjpg/video.cgi?camera=133"
  },
  {
    "id": "C999946",
    "org": "各縣市交通局",
    "name": "國道1號 351.99公里處(北向)",
    "city": "高雄市",
    "town": "高雄市",
    "lon": 120.32909,
    "lat": 22.76592,
    "url": "https://cctvs.freeway.gov.tw/live-view/mjpg/video.cgi?camera=101"
  },
  {
    "id": "C999945",
    "org": "各縣市交通局",
    "name": "國道1號 349.15公里處(北向)",
    "city": "高雄市",
    "town": "高雄市",
    "lon": 120.3213,
    "lat": 22.78621,
    "url": "https://cctvs.freeway.gov.tw/live-view/mjpg/video.cgi?camera=106"
  },
  {
    "id": "C999949",
    "org": "各縣市交通局",
    "name": "國道1號 355.01公里處(北向)",
    "city": "高雄市",
    "town": "高雄市",
    "lon": 120.33476,
    "lat": 22.73953,
    "url": "https://cctvs.freeway.gov.tw/live-view/mjpg/video.cgi?camera=107"
  },
  {
    "id": "C999951",
    "org": "各縣市交通局",
    "name": "國道1號 357.89公里處(北向)",
    "city": "高雄市",
    "town": "高雄市",
    "lon": 120.33092,
    "lat": 22.71386,
    "url": "https://cctvs.freeway.gov.tw/live-view/mjpg/video.cgi?camera=104"
  },
  {
    "id": "C999950",
    "org": "各縣市交通局",
    "name": "國道1號 360.695公里處(南向)",
    "city": "高雄市",
    "town": "高雄市",
    "lon": 120.32801,
    "lat": 22.68888,
    "url": "https://cctvs.freeway.gov.tw/live-view/mjpg/video.cgi?camera=126"
  },
  {
    "id": "C999955",
    "org": "各縣市交通局",
    "name": "國道1號 356.74公里處(北向)",
    "city": "高雄市",
    "town": "高雄市",
    "lon": 120.33321,
    "lat": 22.72403,
    "url": "https://cctvs.freeway.gov.tw/live-view/mjpg/video.cgi?camera=103"
  },
  {
    "id": "C999954",
    "org": "各縣市交通局",
    "name": "國道1號 359.15公里處(南向)",
    "city": "高雄市",
    "town": "高雄市",
    "lon": 120.32823,
    "lat": 22.70279,
    "url": "https://cctvs.freeway.gov.tw/live-view/mjpg/video.cgi?camera=105"
  },
  {
    "id": "C999953",
    "org": "各縣市交通局",
    "name": "國道1號 353.83公里處(北向)",
    "city": "高雄市",
    "town": "高雄市",
    "lon": 120.3345,
    "lat": 22.75017,
    "url": "https://cctvs.freeway.gov.tw/live-view/mjpg/video.cgi?camera=102"
  },
  {
    "id": "C999952",
    "org": "各縣市交通局",
    "name": "國道1號 342.41公里處(北向)",
    "city": "高雄市",
    "town": "高雄市",
    "lon": 120.29556,
    "lat": 22.84584,
    "url": "https://cctvs.freeway.gov.tw/live-view/mjpg/video.cgi?camera=98"
  },
  {
    "id": "C999959",
    "org": "各縣市交通局",
    "name": "國道10號 11.67公里處(西向)",
    "city": "高雄市",
    "town": "高雄市",
    "lon": 120.36357,
    "lat": 22.74717,
    "url": "https://cctvs.freeway.gov.tw/live-view/mjpg/video.cgi?camera=318"
  },
  {
    "id": "C999958",
    "org": "各縣市交通局",
    "name": "國道10號 14.5公里處(東向)",
    "city": "高雄市",
    "town": "高雄市",
    "lon": 120.38508,
    "lat": 22.76025,
    "url": "https://cctvs.freeway.gov.tw/live-view/mjpg/video.cgi?camera=325"
  },
  {
    "id": "C999957",
    "org": "各縣市交通局",
    "name": "國道10號 16.3公里處(西向)",
    "city": "高雄市",
    "town": "高雄市",
    "lon": 120.40018,
    "lat": 22.76796,
    "url": "https://cctvs.freeway.gov.tw/live-view/mjpg/video.cgi?camera=320"
  },
  {
    "id": "C999956",
    "org": "各縣市交通局",
    "name": "國道10號 9.21公里處(西向)",
    "city": "高雄市",
    "town": "高雄市",
    "lon": 120.36008,
    "lat": 22.72528,
    "url": "https://cctvs.freeway.gov.tw/live-view/mjpg/video.cgi?camera=317"
  },
  {
    "id": "C999962",
    "org": "各縣市交通局",
    "name": "國道10號 13.012公里處(西向)",
    "city": "高雄市",
    "town": "高雄市",
    "lon": 120.37128,
    "lat": 22.75643,
    "url": "https://cctvs.freeway.gov.tw/live-view/mjpg/video.cgi?camera=312"
  },
  {
    "id": "C999961",
    "org": "各縣市交通局",
    "name": "國道10號 21.44公里處(西向)",
    "city": "高雄市",
    "town": "高雄市",
    "lon": 120.43823,
    "lat": 22.79532,
    "url": "https://cctvs.freeway.gov.tw/live-view/mjpg/video.cgi?camera=322"
  },
  {
    "id": "C999960",
    "org": "各縣市交通局",
    "name": "國道10號 18.3公里處(西向)",
    "city": "高雄市",
    "town": "高雄市",
    "lon": 120.41763,
    "lat": 22.7757,
    "url": "https://cctvs.freeway.gov.tw/live-view/mjpg/video.cgi?camera=321"
  },
  {
    "id": "C999937",
    "org": "各縣市交通局",
    "name": "國道1號368.51KM(南下側)",
    "city": "高雄市",
    "town": "高雄市",
    "lon": 120.33714,
    "lat": 22.61963,
    "url": "https://cctvs.freeway.gov.tw/live-view/mjpg/video.cgi?camera=451"
  },
  {
    "id": "C999936",
    "org": "各縣市交通局",
    "name": "國道1號365.71KM(南下側)",
    "city": "高雄市",
    "town": "高雄市",
    "lon": 120.33674,
    "lat": 22.64475,
    "url": "https://cctvs.freeway.gov.tw/live-view/mjpg/video.cgi?camera=129"
  },
  {
    "id": "C999935",
    "org": "各縣市交通局",
    "name": "國道1號364.495KM(北上側)",
    "city": "高雄市",
    "town": "高雄市",
    "lon": 120.33385,
    "lat": 22.6553,
    "url": "https://cctvs.freeway.gov.tw/live-view/mjpg/video.cgi?camera=128"
  },
  {
    "id": "C999939",
    "org": "各縣市交通局",
    "name": "國道10號 32.58公里處(西向)",
    "city": "高雄市",
    "town": "高雄市",
    "lon": 120.491234,
    "lat": 22.861546,
    "url": "https://cctvs.freeway.gov.tw/live-view/mjpg/video.cgi?camera=389"
  },
  {
    "id": "C999938",
    "org": "各縣市交通局",
    "name": "國道1號369.763KM(北上側)",
    "city": "高雄市",
    "town": "高雄市",
    "lon": 120.34032,
    "lat": 22.60882,
    "url": "https://cctvs.freeway.gov.tw/live-view/mjpg/video.cgi?camera=131"
  },
  {
    "id": "C999940",
    "org": "各縣市交通局",
    "name": "國道10號 33.6公里處(西向)",
    "city": "高雄市",
    "town": "高雄市",
    "lon": 120.493801,
    "lat": 22.867722,
    "url": "https://cctvs.freeway.gov.tw/live-view/mjpg/video.cgi?camera=328"
  },
  {
    "id": "C999909",
    "org": "各縣市交通局",
    "name": "國道1號367KM(北上側)",
    "city": "高雄市",
    "town": "高雄市",
    "lon": 120.33649,
    "lat": 22.62459,
    "url": "https://cctvs.freeway.gov.tw/live-view/mjpg/video.cgi?camera=135"
  },
  {
    "id": "C999911",
    "org": "各縣市交通局",
    "name": "國道10號 2.125 KM(西向側)",
    "city": "高雄市",
    "town": "高雄市",
    "lon": 120.33115,
    "lat": 22.67603,
    "url": "https://cctvs.freeway.gov.tw/live-view/mjpg/video.cgi?camera=117"
  },
  {
    "id": "C999910",
    "org": "各縣市交通局",
    "name": "國道10號 0.505 KM(東向側)",
    "city": "高雄市",
    "town": "高雄市",
    "lon": 120.32006,
    "lat": 22.67845,
    "url": "https://cctvs.freeway.gov.tw/live-view/mjpg/video.cgi?camera=116"
  },
  {
    "id": "C999914",
    "org": "各縣市交通局",
    "name": "國道10號 6.992 KM(東向側)",
    "city": "高雄市",
    "town": "高雄市",
    "lon": 120.36041,
    "lat": 22.70527,
    "url": "https://cctvs.freeway.gov.tw/live-view/mjpg/video.cgi?camera=120"
  },
  {
    "id": "C999913",
    "org": "各縣市交通局",
    "name": "國道10號 5.264KM(東向側)",
    "city": "高雄市",
    "town": "高雄市",
    "lon": 120.35674,
    "lat": 22.69001,
    "url": "https://cctvs.freeway.gov.tw/live-view/mjpg/video.cgi?camera=119"
  },
  {
    "id": "C999912",
    "org": "各縣市交通局",
    "name": "國道3號 燕巢系統交流道383K+450 南",
    "city": "高雄市",
    "town": "高雄市",
    "lon": 120.425605,
    "lat": 22.787079,
    "url": "https://cctvs.freeway.gov.tw/live-view/mjpg/video.cgi?camera=329"
  },
  {
    "id": "C000354",
    "org": "各縣市交通局",
    "name": "輜汽路、南京路",
    "city": "高雄市",
    "town": "高雄市",
    "lon": 120.34551,
    "lat": 22.617416,
    "url": "https://cctv6.kctmc.nat.gov.tw/d48eabc7"
  },
  {
    "id": "C000111",
    "org": "各縣市交通局",
    "name": "建國二路、南華路",
    "city": "高雄市",
    "town": "高雄市",
    "lon": 120.3034774,
    "lat": 22.637713,
    "url": "https://cctv6.kctmc.nat.gov.tw/e50689c7"
  },
  {
    "id": "C000232",
    "org": "各縣市交通局",
    "name": "橋頭區-成功南路橋新六路口",
    "city": "高雄市",
    "town": "高雄市",
    "lon": 120.314133,
    "lat": 22.750103,
    "url": "https://cctv1.kctmc.nat.gov.tw/778fdd34"
  },
  {
    "id": "C000353",
    "org": "各縣市交通局",
    "name": "府前路、中山西路(建國一路)",
    "city": "高雄市",
    "town": "高雄市",
    "lon": 120.343605,
    "lat": 22.628125,
    "url": "https://cctv6.kctmc.nat.gov.tw/dc3225a0"
  },
  {
    "id": "C000114",
    "org": "各縣市交通局",
    "name": "七賢一路、和平一路",
    "city": "高雄市",
    "town": "高雄市",
    "lon": 120.31669,
    "lat": 22.63365,
    "url": "https://cctv4.kctmc.nat.gov.tw/44384437"
  },
  {
    "id": "C000235",
    "org": "各縣市交通局",
    "name": "橋頭區-成功北路鐵道北路口",
    "city": "高雄市",
    "town": "高雄市",
    "lon": 120.305915,
    "lat": 22.766873,
    "url": "https://cctv1.kctmc.nat.gov.tw/74252f6d"
  },
  {
    "id": "C000356",
    "org": "各縣市交通局",
    "name": "輜汽路、武營路",
    "city": "高雄市",
    "town": "高雄市",
    "lon": 120.336634,
    "lat": 22.616454,
    "url": "https://cctv6.kctmc.nat.gov.tw/a9cb354f"
  },
  {
    "id": "C000113",
    "org": "各縣市交通局",
    "name": "成功一路、五福三路",
    "city": "高雄市",
    "town": "高雄市",
    "lon": 120.29504,
    "lat": 22.62115,
    "url": "https://cctv9.kctmc.nat.gov.tw/play/jpg.php?devid={0fc19ae4-66d9-6714-214a-02656abcd940}&L=33806a101aa5543ed05e71b6f76648a8"
  },
  {
    "id": "C000355",
    "org": "各縣市交通局",
    "name": "輜汽路、新強路",
    "city": "高雄市",
    "town": "高雄市",
    "lon": 120.338815,
    "lat": 22.616687,
    "url": "https://cctv6.kctmc.nat.gov.tw/cdad9a44"
  },
  {
    "id": "C000350",
    "org": "各縣市交通局",
    "name": "站西路、建國三路(東南角)",
    "city": "高雄市",
    "town": "高雄市",
    "lon": 120.302447,
    "lat": 22.637745,
    "url": "https://cctv1.kctmc.nat.gov.tw/11272c5f"
  },
  {
    "id": "C000110",
    "org": "各縣市交通局",
    "name": "大昌一路、建工路",
    "city": "高雄市",
    "town": "高雄市",
    "lon": 120.32935,
    "lat": 22.6523,
    "url": "https://cctv4.kctmc.nat.gov.tw/50204bfc"
  },
  {
    "id": "C000352",
    "org": "各縣市交通局",
    "name": "文自路、重立路",
    "city": "高雄市",
    "town": "高雄市",
    "lon": 120.310855,
    "lat": 22.679045,
    "url": "https://cctv4.kctmc.nat.gov.tw/b88c2541"
  },
  {
    "id": "C000230",
    "org": "各縣市交通局",
    "name": "中正二路、民族二路(東北角)",
    "city": "高雄市",
    "town": "高雄市",
    "lon": 120.313479,
    "lat": 22.630681,
    "url": "https://cctv6.kctmc.nat.gov.tw/bf834bdc"
  },
  {
    "id": "C000351",
    "org": "各縣市交通局",
    "name": "輜汽路、新康街",
    "city": "高雄市",
    "town": "高雄市",
    "lon": 120.343375,
    "lat": 22.617039,
    "url": "https://cctv1.kctmc.nat.gov.tw/02f22e11"
  },
  {
    "id": "C000116",
    "org": "各縣市交通局",
    "name": "九如二路、重慶街",
    "city": "高雄市",
    "town": "高雄市",
    "lon": 120.301832,
    "lat": 22.641313,
    "url": "https://cctv6.kctmc.nat.gov.tw/ae6689ba"
  },
  {
    "id": "C000237",
    "org": "各縣市交通局",
    "name": "岡山區-介壽東路國一岡山交流道南出口",
    "city": "高雄市",
    "town": "高雄市",
    "lon": 120.319635,
    "lat": 22.787597,
    "url": "https://cctv1.kctmc.nat.gov.tw/7366944f"
  },
  {
    "id": "C000358",
    "org": "各縣市交通局",
    "name": "輜汽路、武慶二路",
    "city": "高雄市",
    "town": "高雄市",
    "lon": 120.332263,
    "lat": 22.615942,
    "url": "https://cctv6.kctmc.nat.gov.tw/570f878a"
  },
  {
    "id": "C000357",
    "org": "各縣市交通局",
    "name": "輜汽路、大明路",
    "city": "高雄市",
    "town": "高雄市",
    "lon": 120.34122,
    "lat": 22.616973,
    "url": "https://cctv6.kctmc.nat.gov.tw/260ed460"
  },
  {
    "id": "C000118",
    "org": "各縣市交通局",
    "name": "建國一路、和平一路",
    "city": "高雄市",
    "town": "高雄市",
    "lon": 120.31684,
    "lat": 22.63493,
    "url": "https://cctv2.kctmc.nat.gov.tw/23908645"
  },
  {
    "id": "C000239",
    "org": "各縣市交通局",
    "name": "岡山區-介壽東路岡燕路口",
    "city": "高雄市",
    "town": "高雄市",
    "lon": 120.315039,
    "lat": 22.786566,
    "url": "https://cctv1.kctmc.nat.gov.tw/fd7d11ee"
  },
  {
    "id": "C000359",
    "org": "各縣市交通局",
    "name": "新富路、大明路",
    "city": "高雄市",
    "town": "高雄市",
    "lon": 120.341345,
    "lat": 22.612779,
    "url": "https://cctv6.kctmc.nat.gov.tw/bca63d13"
  },
  {
    "id": "C000101",
    "org": "各縣市交通局",
    "name": "博愛三路、新莊仔路",
    "city": "高雄市",
    "town": "高雄市",
    "lon": 120.303707,
    "lat": 22.670686,
    "url": "https://cctv4.kctmc.nat.gov.tw/647dc4e4"
  },
  {
    "id": "C000343",
    "org": "各縣市交通局",
    "name": "新順路、龍德新路",
    "city": "高雄市",
    "town": "高雄市",
    "lon": 120.305896,
    "lat": 22.654438,
    "url": "https://cctv1.kctmc.nat.gov.tw/c55d4471"
  },
  {
    "id": "C000100",
    "org": "各縣市交通局",
    "name": "海邊路、青年二路",
    "city": "高雄市",
    "town": "高雄市",
    "lon": 120.29354,
    "lat": 22.61723,
    "url": "https://cctv4.kctmc.nat.gov.tw/95984d1b"
  },
  {
    "id": "C000342",
    "org": "各縣市交通局",
    "name": "自由一路、龍德新路",
    "city": "高雄市",
    "town": "高雄市",
    "lon": 120.308607,
    "lat": 22.655338,
    "url": "https://cctv2.kctmc.nat.gov.tw/f8a9e69f"
  },
  {
    "id": "C000103",
    "org": "各縣市交通局",
    "name": "中山一路、八德二路(西北角)",
    "city": "高雄市",
    "town": "高雄市",
    "lon": 120.30235,
    "lat": 22.636,
    "url": "https://cctv6.kctmc.nat.gov.tw/75ebb7f4"
  },
  {
    "id": "C000224",
    "org": "各縣市交通局",
    "name": "三多五路、成功二路(西北角)",
    "city": "高雄市",
    "town": "高雄市",
    "lon": 120.298405,
    "lat": 22.61199,
    "url": "https://cctv3.kctmc.nat.gov.tw/c50d5e7c"
  },
  {
    "id": "C000345",
    "org": "各縣市交通局",
    "name": "博愛二路、明誠二路",
    "city": "高雄市",
    "town": "高雄市",
    "lon": 120.30299,
    "lat": 22.661062,
    "url": "https://cctv1.kctmc.nat.gov.tw/9e0ae049"
  },
  {
    "id": "C000102",
    "org": "各縣市交通局",
    "name": "博愛二路、裕誠路",
    "city": "高雄市",
    "town": "高雄市",
    "lon": 120.30326,
    "lat": 22.6659,
    "url": "https://cctv4.kctmc.nat.gov.tw/cace7432"
  },
  {
    "id": "C000223",
    "org": "各縣市交通局",
    "name": "中安路、明鳳七街(西北角)",
    "city": "高雄市",
    "town": "高雄市",
    "lon": 120.334561,
    "lat": 22.583127,
    "url": "https://cctv4.kctmc.nat.gov.tw/ea8cc67a"
  },
  {
    "id": "C000344",
    "org": "各縣市交通局",
    "name": "五福四路、大智路(大禮)",
    "city": "高雄市",
    "town": "高雄市",
    "lon": 120.287169,
    "lat": 22.621861,
    "url": "https://cctv4.kctmc.nat.gov.tw/d59616dd"
  },
  {
    "id": "C000220",
    "org": "各縣市交通局",
    "name": "中山二路、新光路(東北角)",
    "city": "高雄市",
    "town": "高雄市",
    "lon": 120.305336,
    "lat": 22.612466,
    "url": "https://cctv7.kctmc.nat.gov.tw/play/jpg.php?devid={5860c450-38c0-1a24-f907-f96c4cb0b53e}&L=dfe8885c1acbe4c5e5fb91e6d9bd3724"
  },
  {
    "id": "C000341",
    "org": "各縣市交通局",
    "name": "站西路、建國三路",
    "city": "高雄市",
    "town": "高雄市",
    "lon": 120.301861,
    "lat": 22.637919,
    "url": "https://cctv6.kctmc.nat.gov.tw/abc0307b"
  },
  {
    "id": "C000340",
    "org": "各縣市交通局",
    "name": "站西路、九如二路",
    "city": "高雄市",
    "town": "高雄市",
    "lon": 120.302601,
    "lat": 22.641186,
    "url": "https://cctv6.kctmc.nat.gov.tw/abc0307a"
  },
  {
    "id": "C000109",
    "org": "各縣市交通局",
    "name": "河東路、中正四路",
    "city": "高雄市",
    "town": "高雄市",
    "lon": 120.28885,
    "lat": 22.62703,
    "url": "https://cctv7.kctmc.nat.gov.tw/play/jpg.php?devid={577e20b3-a865-e524-69a8-3271a9264358}&L=dfe8885c1acbe4c5e5fb91e6d9bd3724"
  },
  {
    "id": "C000108",
    "org": "各縣市交通局",
    "name": "建國一路、大順三路",
    "city": "高雄市",
    "town": "高雄市",
    "lon": 120.3257,
    "lat": 22.63285,
    "url": "https://cctv4.kctmc.nat.gov.tw/d523f481"
  },
  {
    "id": "C000229",
    "org": "各縣市交通局",
    "name": "中正一路、河北路(東南角)",
    "city": "高雄市",
    "town": "高雄市",
    "lon": 120.32351,
    "lat": 22.629698,
    "url": "https://cctv7.kctmc.nat.gov.tw/play/jpg.php?devid={a9ff8a53-b9d0-e9b4-b1b4-e560cf199b9d}&L=dfe8885c1acbe4c5e5fb91e6d9bd3724"
  },
  {
    "id": "C000105",
    "org": "各縣市交通局",
    "name": "中山一路、五福二路",
    "city": "高雄市",
    "town": "高雄市",
    "lon": 120.30101,
    "lat": 22.62314,
    "url": "https://cctv4.kctmc.nat.gov.tw/fa5b05c8"
  },
  {
    "id": "C000347",
    "org": "各縣市交通局",
    "name": "站西路、九如二路(西北角)",
    "city": "高雄市",
    "town": "高雄市",
    "lon": 120.302539,
    "lat": 22.641316,
    "url": "https://cctv1.kctmc.nat.gov.tw/6e559e58"
  },
  {
    "id": "C000225",
    "org": "各縣市交通局",
    "name": "成功二路、新光路(東南角)",
    "city": "高雄市",
    "town": "高雄市",
    "lon": 120.29922,
    "lat": 22.610485,
    "url": "https://cctv7.kctmc.nat.gov.tw/play/jpg.php?devid={6f2fb8c3-2694-ffd4-f1b9-8767d96575c9}&L=dfe8885c1acbe4c5e5fb91e6d9bd3724"
  },
  {
    "id": "C000346",
    "org": "各縣市交通局",
    "name": "府前路、光復路二段",
    "city": "高雄市",
    "town": "高雄市",
    "lon": 120.343689,
    "lat": 22.629449,
    "url": "https://cctv1.kctmc.nat.gov.tw/c39b76c7"
  },
  {
    "id": "C000228",
    "org": "各縣市交通局",
    "name": "中正一路、福德路(東北角)",
    "city": "高雄市",
    "town": "高雄市",
    "lon": 120.32763,
    "lat": 22.629718,
    "url": "https://cctv6.kctmc.nat.gov.tw/54ecdec4"
  },
  {
    "id": "C000349",
    "org": "各縣市交通局",
    "name": "國泰路二段、議會路(南京路)",
    "city": "高雄市",
    "town": "高雄市",
    "lon": 120.345393,
    "lat": 22.621229,
    "url": "https://cctv1.kctmc.nat.gov.tw/95ee1e78"
  },
  {
    "id": "C000106",
    "org": "各縣市交通局",
    "name": "軍校路、中海路",
    "city": "高雄市",
    "town": "高雄市",
    "lon": 120.29255,
    "lat": 22.70068,
    "url": "https://cctv4.kctmc.nat.gov.tw/92f2f4e3"
  },
  {
    "id": "C000227",
    "org": "各縣市交通局",
    "name": "中正一路、輔仁路(西南角)",
    "city": "高雄市",
    "town": "高雄市",
    "lon": 120.332351,
    "lat": 22.627995,
    "url": "https://cctv7.kctmc.nat.gov.tw/play/jpg.php?devid={1bd7d468-24dd-6094-2d34-598be51a7948}&L=dfe8885c1acbe4c5e5fb91e6d9bd3724"
  },
  {
    "id": "C000348",
    "org": "各縣市交通局",
    "name": "三多路、衛武營站3號出口",
    "city": "高雄市",
    "town": "高雄市",
    "lon": 120.341179,
    "lat": 22.624514,
    "url": "https://cctv1.kctmc.nat.gov.tw/1761ad24"
  },
  {
    "id": "C000211",
    "org": "各縣市交通局",
    "name": "博愛三路、曾子路(西南角)",
    "city": "高雄市",
    "town": "高雄市",
    "lon": 120.307717,
    "lat": 22.678807,
    "url": "https://cctv2.kctmc.nat.gov.tw/13d0719f"
  },
  {
    "id": "C000210",
    "org": "各縣市交通局",
    "name": "本館路、球場路(東南角)",
    "city": "高雄市",
    "town": "高雄市",
    "lon": 120.336149,
    "lat": 22.655443,
    "url": "https://cctv2.kctmc.nat.gov.tw/82f512e5"
  },
  {
    "id": "C000213",
    "org": "各縣市交通局",
    "name": "博愛一路、同盟二路(西南角)",
    "city": "高雄市",
    "town": "高雄市",
    "lon": 120.303276,
    "lat": 22.651661,
    "url": "https://cctv6.kctmc.nat.gov.tw/ea05668e"
  },
  {
    "id": "C000212",
    "org": "各縣市交通局",
    "name": "博愛一路、龍德路(西南角)",
    "city": "高雄市",
    "town": "高雄市",
    "lon": 120.30334,
    "lat": 22.654274,
    "url": "https://cctv1.kctmc.nat.gov.tw/4ff10f0e"
  },
  {
    "id": "C000333",
    "org": "各縣市交通局",
    "name": "臨海二路、鼓山一路(西南角)",
    "city": "高雄市",
    "town": "高雄市",
    "lon": 120.275,
    "lat": 22.6211,
    "url": "https://cctv3.kctmc.nat.gov.tw/a885caaf"
  },
  {
    "id": "C000219",
    "org": "各縣市交通局",
    "name": "中山二路、復興三路(西北角)",
    "city": "高雄市",
    "town": "高雄市",
    "lon": 120.306923,
    "lat": 22.607335,
    "url": "https://cctv7.kctmc.nat.gov.tw/play/jpg.php?devid={8d498cd8-782f-5154-cd99-ae9ddd59ea00}&L=dfe8885c1acbe4c5e5fb91e6d9bd3724"
  },
  {
    "id": "C000336",
    "org": "各縣市交通局",
    "name": "建國二路、復興一路",
    "city": "高雄市",
    "town": "高雄市",
    "lon": 120.308728,
    "lat": 22.6375,
    "url": "https://cctv6.kctmc.nat.gov.tw/759e1ca2"
  },
  {
    "id": "C000214",
    "org": "各縣市交通局",
    "name": "博愛一路、十全二路(西北角)",
    "city": "高雄市",
    "town": "高雄市",
    "lon": 120.302911,
    "lat": 22.645403,
    "url": "https://cctv2.kctmc.nat.gov.tw/36889489"
  },
  {
    "id": "C000335",
    "org": "各縣市交通局",
    "name": "鳳山區-高速公路西側、三商街",
    "city": "高雄市",
    "town": "高雄市",
    "lon": 120.338757,
    "lat": 22.595767,
    "url": "https://cctv4.kctmc.nat.gov.tw/75f7e057"
  },
  {
    "id": "C000217",
    "org": "各縣市交通局",
    "name": "中山一路、七賢一路(東南角)",
    "city": "高雄市",
    "town": "高雄市",
    "lon": 120.302374,
    "lat": 22.634352,
    "url": "https://cctv2.kctmc.nat.gov.tw/fa18524c"
  },
  {
    "id": "C000338",
    "org": "各縣市交通局",
    "name": "站西路",
    "city": "高雄市",
    "town": "高雄市",
    "lon": 120.301646,
    "lat": 22.639455,
    "url": "https://cctv7.kctmc.nat.gov.tw/play/jpg.php?devid={b1ac04f4-9b8f-ced4-b939-46dea260b56f}&L=dfe8885c1acbe4c5e5fb91e6d9bd3724"
  },
  {
    "id": "C000216",
    "org": "各縣市交通局",
    "name": "博愛二路、立信街266巷西北角(漢神巨蛋對面)",
    "city": "高雄市",
    "town": "高雄市",
    "lon": 120.303319,
    "lat": 22.668284,
    "url": "https://cctv2.kctmc.nat.gov.tw/a017d086"
  },
  {
    "id": "C000337",
    "org": "各縣市交通局",
    "name": "翠華路、新莊一路",
    "city": "高雄市",
    "town": "高雄市",
    "lon": 120.294519,
    "lat": 22.675349,
    "url": "https://cctv4.kctmc.nat.gov.tw/38fa31cf"
  },
  {
    "id": "C000200",
    "org": "各縣市交通局",
    "name": "台29、縣186(中興東路)東南角",
    "city": "高雄市",
    "town": "高雄市",
    "lon": 120.43524,
    "lat": 22.691616,
    "url": "https://cctv2.kctmc.nat.gov.tw/52bd7922"
  },
  {
    "id": "C000202",
    "org": "各縣市交通局",
    "name": "大中二路、自由三路(東南角)",
    "city": "高雄市",
    "town": "高雄市",
    "lon": 120.31364,
    "lat": 22.679084,
    "url": "https://cctv7.kctmc.nat.gov.tw/play/jpg.php?devid={e3a6c41d-28fe-37e4-35cf-cccdf57600ae}&L=dfe8885c1acbe4c5e5fb91e6d9bd3724"
  },
  {
    "id": "C000201",
    "org": "各縣市交通局",
    "name": "水管三路、義大二路(林山巷)東南角",
    "city": "高雄市",
    "town": "高雄市",
    "lon": 120.379472,
    "lat": 22.700544,
    "url": "https://cctv2.kctmc.nat.gov.tw/1d198f24"
  },
  {
    "id": "C000207",
    "org": "各縣市交通局",
    "name": "高速公路(興西路)、鳳仁路(東北角)",
    "city": "高雄市",
    "town": "高雄市",
    "lon": 120.333166,
    "lat": 22.720635,
    "url": "https://cctv7.kctmc.nat.gov.tw/play/jpg.php?devid={2c13f72e-075f-9274-65dc-04f4adb96db7}&L=dfe8885c1acbe4c5e5fb91e6d9bd3724"
  },
  {
    "id": "C000209",
    "org": "各縣市交通局",
    "name": "仁雄路、鼎力路(路橋北側)",
    "city": "高雄市",
    "town": "高雄市",
    "lon": 120.332286,
    "lat": 22.672887,
    "url": "https://cctv2.kctmc.nat.gov.tw/9abb5572"
  },
  {
    "id": "C000204",
    "org": "各縣市交通局",
    "name": "大中一路、鼎中路北側",
    "city": "高雄市",
    "town": "高雄市",
    "lon": 120.323253,
    "lat": 22.677025,
    "url": "https://cctv2.kctmc.nat.gov.tw/02c80573"
  },
  {
    "id": "C000203",
    "org": "各縣市交通局",
    "name": "大中二路、民族一路(西北角)",
    "city": "高雄市",
    "town": "高雄市",
    "lon": 120.318747,
    "lat": 22.679322,
    "url": "https://cctv1.kctmc.nat.gov.tw/7e930c00"
  },
  {
    "id": "C000206",
    "org": "各縣市交通局",
    "name": "高速公路(南下交流道)、鳳楠路西南角",
    "city": "高雄市",
    "town": "高雄市",
    "lon": 120.332007,
    "lat": 22.721011,
    "url": "https://cctv7.kctmc.nat.gov.tw/play/jpg.php?devid={0ac310e1-9314-eb34-2543-c933e690594a}&L=dfe8885c1acbe4c5e5fb91e6d9bd3724"
  },
  {
    "id": "C000310",
    "org": "各縣市交通局",
    "name": "大中二路、文自路(西南角)",
    "city": "高雄市",
    "town": "高雄市",
    "lon": 120.311524,
    "lat": 22.680217,
    "url": "https://cctv2.kctmc.nat.gov.tw/87a46a03"
  },
  {
    "id": "C999988",
    "org": "各縣市交通局",
    "name": "快速公路88號 20.193公里處(西向)",
    "city": "高雄市",
    "town": "高雄市",
    "lon": 120.51888,
    "lat": 22.56855,
    "url": "https://cctvs.freeway.gov.tw/live-view/mjpg/video.cgi?camera=141"
  },
  {
    "id": "C999987",
    "org": "各縣市交通局",
    "name": "快速公路88號 8.269公里處(東向)",
    "city": "高雄市",
    "town": "高雄市",
    "lon": 120.41663,
    "lat": 22.58769,
    "url": "https://cctvs.freeway.gov.tw/live-view/mjpg/video.cgi?camera=144"
  },
  {
    "id": "C000312",
    "org": "各縣市交通局",
    "name": "民族二路、七賢一路",
    "city": "高雄市",
    "town": "高雄市",
    "lon": 120.31367,
    "lat": 22.633862,
    "url": "https://cctv6.kctmc.nat.gov.tw/8bd155ee"
  },
  {
    "id": "C999986",
    "org": "各縣市交通局",
    "name": "快速公路88號 2.092公里處(西向)",
    "city": "高雄市",
    "town": "高雄市",
    "lon": 120.35651,
    "lat": 22.5906,
    "url": "https://cctvs.freeway.gov.tw/live-view/mjpg/video.cgi?camera=143"
  },
  {
    "id": "C000311",
    "org": "各縣市交通局",
    "name": "九如二路、自由一路(西南角)",
    "city": "高雄市",
    "town": "高雄市",
    "lon": 120.308342,
    "lat": 22.640916,
    "url": "https://cctv1.kctmc.nat.gov.tw/b045c1d4"
  },
  {
    "id": "C999985",
    "org": "各縣市交通局",
    "name": "快速公路88號 9.656公里處(東向)",
    "city": "高雄市",
    "town": "高雄市",
    "lon": 120.42857,
    "lat": 22.59189,
    "url": "https://cctvs.freeway.gov.tw/live-view/mjpg/video.cgi?camera=145"
  },
  {
    "id": "C999989",
    "org": "各縣市交通局",
    "name": "快速公路88號4.985公里處(西向)",
    "city": "高雄市",
    "town": "高雄市",
    "lon": 120.38565,
    "lat": 22.58938,
    "url": "https://cctvs.freeway.gov.tw/live-view/mjpg/video.cgi?camera=138"
  },
  {
    "id": "C000317",
    "org": "各縣市交通局",
    "name": "青年路二段、光復路一段",
    "city": "高雄市",
    "town": "高雄市",
    "lon": 120.349247,
    "lat": 22.629229,
    "url": "https://cctv1.kctmc.nat.gov.tw/4a6130b2"
  },
  {
    "id": "C000314",
    "org": "各縣市交通局",
    "name": "中華一路、翠華路",
    "city": "高雄市",
    "town": "高雄市",
    "lon": 120.288101,
    "lat": 22.668288,
    "url": "https://cctv1.kctmc.nat.gov.tw/b87a30f9"
  },
  {
    "id": "C000313",
    "org": "各縣市交通局",
    "name": "臨海二路、麗雄街",
    "city": "高雄市",
    "town": "高雄市",
    "lon": 120.273309,
    "lat": 22.622225,
    "url": "https://cctv1.kctmc.nat.gov.tw/2e4ef8f1"
  },
  {
    "id": "C000316",
    "org": "各縣市交通局",
    "name": "澄清路、光復路二段",
    "city": "高雄市",
    "town": "高雄市",
    "lon": 120.34444,
    "lat": 22.629356,
    "url": "https://cctv1.kctmc.nat.gov.tw/bce8568c"
  },
  {
    "id": "C000315",
    "org": "各縣市交通局",
    "name": "建國一路、正義路",
    "city": "高雄市",
    "town": "高雄市",
    "lon": 120.338374,
    "lat": 22.629907,
    "url": "https://cctv1.kctmc.nat.gov.tw/f4587ee1"
  },
  {
    "id": "C999991",
    "org": "各縣市交通局",
    "name": "快速公路88號 15.766公里處(東向)",
    "city": "高雄市",
    "town": "高雄市",
    "lon": 120.47814,
    "lat": 22.57089,
    "url": "https://cctvs.freeway.gov.tw/live-view/mjpg/video.cgi?camera=146"
  },
  {
    "id": "C999990",
    "org": "各縣市交通局",
    "name": "快速公路88號 13.6公里處(西向)",
    "city": "高雄市",
    "town": "高雄市",
    "lon": 120.46499,
    "lat": 22.58492,
    "url": "https://cctvs.freeway.gov.tw/live-view/mjpg/video.cgi?camera=140"
  },
  {
    "id": "C999998",
    "org": "各縣市交通局",
    "name": "國道1號 363公里處(南向)",
    "city": "高雄市",
    "town": "高雄市",
    "lon": 120.32933,
    "lat": 22.67056,
    "url": "https://cctvs.freeway.gov.tw/live-view/mjpg/video.cgi?camera=127"
  },
  {
    "id": "C999997",
    "org": "各縣市交通局",
    "name": "義大世界入口",
    "city": "高雄市",
    "town": "高雄市",
    "lon": 120.40009,
    "lat": 22.73091,
    "url": "https://cctv9.kctmc.nat.gov.tw/play/jpg.php?devid={db1c8ac8-ec43-2b14-857d-79222b92563a}&L=33806a101aa5543ed05e71b6f76648a8"
  },
  {
    "id": "C000300",
    "org": "各縣市交通局",
    "name": "旗津渡輪站2",
    "city": "高雄市",
    "town": "高雄市",
    "lon": 120.269621,
    "lat": 22.614049,
    "url": "https://cctv7.kctmc.nat.gov.tw/play/jpg.php?devid={99bc3dae-e546-1494-3d01-bc769884981b}&L=dfe8885c1acbe4c5e5fb91e6d9bd3724"
  },
  {
    "id": "C999996",
    "org": "各縣市交通局",
    "name": "義大世界停車場",
    "city": "高雄市",
    "town": "高雄市",
    "lon": 120.41144,
    "lat": 22.73074,
    "url": "https://cctv9.kctmc.nat.gov.tw/play/jpg.php?devid={de0ee851-11d7-ae34-099f-7ce385522667}&L=33806a101aa5543ed05e71b6f76648a8"
  },
  {
    "id": "C000307",
    "org": "各縣市交通局",
    "name": "海邊路、新田路",
    "city": "高雄市",
    "town": "高雄市",
    "lon": 120.293274,
    "lat": 22.618862,
    "url": "https://cctv3.kctmc.nat.gov.tw/71d5123d"
  },
  {
    "id": "C000306",
    "org": "各縣市交通局",
    "name": "海邊路、永平路",
    "city": "高雄市",
    "town": "高雄市",
    "lon": 120.292018,
    "lat": 22.612642,
    "url": "https://cctv2.kctmc.nat.gov.tw/0f622552"
  },
  {
    "id": "C000309",
    "org": "各縣市交通局",
    "name": "臨海新路、蓬萊路",
    "city": "高雄市",
    "town": "高雄市",
    "lon": 120.278665,
    "lat": 22.6195923,
    "url": "https://cctv6.kctmc.nat.gov.tw/5f62c4c7"
  },
  {
    "id": "C000308",
    "org": "各縣市交通局",
    "name": "七賢三路、蓬萊路",
    "city": "高雄市",
    "town": "高雄市",
    "lon": 120.279134,
    "lat": 22.620929,
    "url": "https://cctv2.kctmc.nat.gov.tw/2be121db"
  },
  {
    "id": "C000303",
    "org": "各縣市交通局",
    "name": "成功二路、凱旋四路",
    "city": "高雄市",
    "town": "高雄市",
    "lon": 120.305657,
    "lat": 22.593406,
    "url": "https://cctv2.kctmc.nat.gov.tw/e7213957"
  },
  {
    "id": "C000302",
    "org": "各縣市交通局",
    "name": "凱旋四路、前鎮街",
    "city": "高雄市",
    "town": "高雄市",
    "lon": 120.308025,
    "lat": 22.592594,
    "url": "https://cctv2.kctmc.nat.gov.tw/97358d57"
  },
  {
    "id": "C000305",
    "org": "各縣市交通局",
    "name": "中華五路、復興三路",
    "city": "高雄市",
    "town": "高雄市",
    "lon": 120.304828,
    "lat": 22.606466,
    "url": "https://cctv2.kctmc.nat.gov.tw/2c7578ed"
  },
  {
    "id": "C000304",
    "org": "各縣市交通局",
    "name": "成功二路、正勤路",
    "city": "高雄市",
    "town": "高雄市",
    "lon": 120.302414,
    "lat": 22.601791,
    "url": "https://cctv2.kctmc.nat.gov.tw/1bd86445"
  },
  {
    "id": "C999966",
    "org": "各縣市交通局",
    "name": "國道3號 405.836公里處(南向)",
    "city": "高雄市",
    "town": "高雄市",
    "lon": 120.54648,
    "lat": 22.65164,
    "url": "https://cctvs.freeway.gov.tw/live-view/mjpg/video.cgi?camera=341"
  },
  {
    "id": "C999965",
    "org": "各縣市交通局",
    "name": "國道3號 390.963公里處(北向)",
    "city": "高雄市",
    "town": "高雄市",
    "lon": 120.49205,
    "lat": 22.75335,
    "url": "https://cctvs.freeway.gov.tw/live-view/mjpg/video.cgi?camera=306"
  },
  {
    "id": "C999964",
    "org": "各縣市交通局",
    "name": "國道3號 388.73公里處(南向)",
    "city": "高雄市",
    "town": "高雄市",
    "lon": 120.47117,
    "lat": 22.75826,
    "url": "https://cctvs.freeway.gov.tw/live-view/mjpg/video.cgi?camera=331"
  },
  {
    "id": "C999963",
    "org": "各縣市交通局",
    "name": "國道10號 19.542公里處(西向)",
    "city": "高雄市",
    "town": "高雄市",
    "lon": 120.42561,
    "lat": 22.78385,
    "url": "https://cctvs.freeway.gov.tw/live-view/mjpg/video.cgi?camera=313"
  },
  {
    "id": "C999969",
    "org": "各縣市交通局",
    "name": "國道3號 424.141公里處(北向)",
    "city": "高雄市",
    "town": "高雄市",
    "lon": 120.52888,
    "lat": 22.49372,
    "url": "https://cctvs.freeway.gov.tw/live-view/mjpg/video.cgi?camera=346"
  },
  {
    "id": "C999968",
    "org": "各縣市交通局",
    "name": "國道3號 418.000公里處(南向)",
    "city": "高雄市",
    "town": "高雄市",
    "lon": 120.5201,
    "lat": 22.54761,
    "url": "https://cctvs.freeway.gov.tw/live-view/mjpg/video.cgi?camera=354"
  },
  {
    "id": "C999967",
    "org": "各縣市交通局",
    "name": "國道3號 408.736公里處(北向)",
    "city": "高雄市",
    "town": "高雄市",
    "lon": 120.53403,
    "lat": 22.62841,
    "url": "https://cctvs.freeway.gov.tw/live-view/mjpg/video.cgi?camera=342"
  },
  {
    "id": "C999973",
    "org": "各縣市交通局",
    "name": "國道3號 402.15公里處(北向)",
    "city": "高雄市",
    "town": "高雄市",
    "lon": 120.5633,
    "lat": 22.68143,
    "url": "https://cctvs.freeway.gov.tw/live-view/mjpg/video.cgi?camera=351"
  },
  {
    "id": "C999972",
    "org": "各縣市交通局",
    "name": "國道3號 400.163公里處(南向)",
    "city": "高雄市",
    "town": "高雄市",
    "lon": 120.55564,
    "lat": 22.69639,
    "url": "https://cctvs.freeway.gov.tw/live-view/mjpg/video.cgi?camera=340"
  },
  {
    "id": "C999971",
    "org": "各縣市交通局",
    "name": "國道3號 385.803公里處(南向)",
    "city": "高雄市",
    "town": "高雄市",
    "lon": 120.44475,
    "lat": 22.7679,
    "url": "https://cctvs.freeway.gov.tw/live-view/mjpg/video.cgi?camera=305"
  },
  {
    "id": "C999970",
    "org": "各縣市交通局",
    "name": "國道3號 425.644公里處(北向)",
    "city": "高雄市",
    "town": "高雄市",
    "lon": 120.53146,
    "lat": 22.48044,
    "url": "https://cctvs.freeway.gov.tw/live-view/mjpg/video.cgi?camera=348"
  },
  {
    "id": "C999977",
    "org": "各縣市交通局",
    "name": "國道3號 383.45公里處(南向)",
    "city": "高雄市",
    "town": "高雄市",
    "lon": 120.42796,
    "lat": 22.78101,
    "url": "https://cctvs.freeway.gov.tw/live-view/mjpg/video.cgi?camera=329"
  },
  {
    "id": "C999976",
    "org": "各縣市交通局",
    "name": "國道3號 430.396公里處(南向)",
    "city": "高雄市",
    "town": "高雄市",
    "lon": 120.50969,
    "lat": 22.44852,
    "url": "https://cctvs.freeway.gov.tw/live-view/mjpg/video.cgi?camera=349"
  },
  {
    "id": "C999975",
    "org": "各縣市交通局",
    "name": "國道3號 415.55公里處(南向)",
    "city": "高雄市",
    "town": "高雄市",
    "lon": 120.5278,
    "lat": 22.56833,
    "url": "https://cctvs.freeway.gov.tw/live-view/mjpg/video.cgi?camera=353"
  },
  {
    "id": "C999974",
    "org": "各縣市交通局",
    "name": "國道3號 414.971公里處(南向)",
    "city": "高雄市",
    "town": "高雄市",
    "lon": 120.52791,
    "lat": 22.57355,
    "url": "https://cctvs.freeway.gov.tw/live-view/mjpg/video.cgi?camera=344"
  },
  {
    "id": "C999979",
    "org": "各縣市交通局",
    "name": "國道3號 411.283公里處(北向)",
    "city": "高雄市",
    "town": "高雄市",
    "lon": 120.52924,
    "lat": 22.6059,
    "url": "https://cctvs.freeway.gov.tw/live-view/mjpg/video.cgi?camera=343"
  },
  {
    "id": "C999978",
    "org": "各縣市交通局",
    "name": "國道3號 395.000公里處(南向)",
    "city": "高雄市",
    "town": "高雄市",
    "lon": 120.51936,
    "lat": 22.72738,
    "url": "https://cctvs.freeway.gov.tw/live-view/mjpg/video.cgi?camera=332"
  },
  {
    "id": "C999980",
    "org": "各縣市交通局",
    "name": "國道3號 420.92公里處(南向)",
    "city": "高雄市",
    "town": "高雄市",
    "lon": 120.52313,
    "lat": 22.52206,
    "url": "https://cctvs.freeway.gov.tw/live-view/mjpg/video.cgi?camera=345"
  },
  {
    "id": "C999984",
    "org": "各縣市交通局",
    "name": "快速公路88號 7.307公里處(西向)",
    "city": "高雄市",
    "town": "高雄市",
    "lon": 120.40804,
    "lat": 22.58656,
    "url": "https://cctvs.freeway.gov.tw/live-view/mjpg/video.cgi?camera=139"
  },
  {
    "id": "C999983",
    "org": "各縣市交通局",
    "name": "快速公路88號 1公里處(東向)",
    "city": "高雄市",
    "town": "高雄市",
    "lon": 120.34715,
    "lat": 22.59194,
    "url": "https://cctvs.freeway.gov.tw/live-view/mjpg/video.cgi?camera=142"
  },
  {
    "id": "C999982",
    "org": "各縣市交通局",
    "name": "國道3號 428.7公里處(北向)",
    "city": "高雄市",
    "town": "高雄市",
    "lon": 120.51918,
    "lat": 22.45626,
    "url": "https://cctvs.freeway.gov.tw/live-view/mjpg/video.cgi?camera=352"
  },
  {
    "id": "C999981",
    "org": "各縣市交通局",
    "name": "國道3號 422.703公里處(南向)",
    "city": "高雄市",
    "town": "高雄市",
    "lon": 120.52519,
    "lat": 22.50616,
    "url": "https://cctvs.freeway.gov.tw/live-view/mjpg/video.cgi?camera=347"
  },
  {
    "id": "V1700003",
    "org": "臺南市區域排水",
    "name": "永康排水分洪口",
    "city": "臺南市",
    "town": "永康區",
    "lon": 120.2543611,
    "lat": 23.05,
    "url": "https://wrbweb3.tainan.gov.tw/CameraImages/CCTV03/RT/rt.jpg"
  },
  {
    "id": "V1700004",
    "org": "臺南市區域排水",
    "name": "五空橋",
    "city": "臺南市",
    "town": "仁德區",
    "lon": 120.2214722,
    "lat": 22.92733333,
    "url": "https://wrbweb3.tainan.gov.tw/CameraImages/CCTV04/RT/rt.jpg"
  },
  {
    "id": "V1700005",
    "org": "臺南市區域排水",
    "name": "洋子下橋",
    "city": "臺南市",
    "town": "仁德區",
    "lon": 120.2429111,
    "lat": 22.95616667,
    "url": "https://wrbweb3.tainan.gov.tw/CameraImages/CCTV05/RT/rt.jpg"
  },
  {
    "id": "V1700006",
    "org": "臺南市區域排水",
    "name": "鯽潭橋",
    "city": "臺南市",
    "town": "仁德區",
    "lon": 120.2504444,
    "lat": 22.99108333,
    "url": "https://wrbweb3.tainan.gov.tw/CameraImages/CCTV06/RT/rt.jpg"
  },
  {
    "id": "V1700007",
    "org": "臺南市區域排水",
    "name": "真理橋",
    "city": "臺南市",
    "town": "麻豆區",
    "lon": 120.2209444,
    "lat": 23.21059167,
    "url": "https://wrbweb3.tainan.gov.tw/CameraImages/CCTV07/RT/rt.jpg"
  },
  {
    "id": "V1700008",
    "org": "臺南市區域排水",
    "name": "埤頭橋",
    "city": "臺南市",
    "town": "麻豆區",
    "lon": 120.2286944,
    "lat": 23.19105556,
    "url": "https://wrbweb3.tainan.gov.tw/CameraImages/CCTV08/RT/rt.jpg"
  },
  {
    "id": "V1770002",
    "org": "臺南市區域排水",
    "name": "新和庄",
    "city": "臺南市",
    "town": "新化區",
    "lon": 120.3294167,
    "lat": 23.02305556,
    "url": "https://wrbweb3.tainan.gov.tw/CameraImages/CCTV62/RT/rt.jpg"
  },
  {
    "id": "V1770004",
    "org": "臺南市區域排水",
    "name": "港尾溝溪分洪口",
    "city": "臺南市",
    "town": "仁德區",
    "lon": 120.257125,
    "lat": 22.92734167,
    "url": "https://wrbweb3.tainan.gov.tw/CameraImages/CCTV65/RT/rt.jpg"
  },
  {
    "id": "V1770005",
    "org": "臺南市區域排水",
    "name": "港尾溝溪分洪匯流口",
    "city": "臺南市",
    "town": "仁德區",
    "lon": 120.2676778,
    "lat": 22.90314444,
    "url": "https://wrbweb3.tainan.gov.tw/CameraImages/CCTV66/RT/rt.jpg"
  },
  {
    "id": "V1770006",
    "org": "臺南市區域排水",
    "name": "仁德滯洪北池",
    "city": "臺南市",
    "town": "仁德區",
    "lon": 120.2474139,
    "lat": 22.96544444,
    "url": "https://wrbweb3.tainan.gov.tw/CameraImages/CCTV67/RT/rt.jpg"
  },
  {
    "id": "V1770007",
    "org": "臺南市區域排水",
    "name": "仁德滯洪南池",
    "city": "臺南市",
    "town": "仁德區",
    "lon": 120.2471694,
    "lat": 22.9613,
    "url": "https://wrbweb3.tainan.gov.tw/CameraImages/CCTV68/RT/rt.jpg"
  },
  {
    "id": "V1770008",
    "org": "臺南市區域排水",
    "name": "萬代橋",
    "city": "臺南市",
    "town": "仁德區",
    "lon": 120.2490806,
    "lat": 22.97206944,
    "url": "https://wrbweb3.tainan.gov.tw/CameraImages/CCTV69/RT/rt.jpg"
  },
  {
    "id": "V1700062",
    "org": "臺南市車行地下道",
    "name": "小東路地下道",
    "city": "臺南市",
    "town": "東區",
    "lon": 120.21378,
    "lat": 23.00145,
    "url": "https://wrbweb3.tainan.gov.tw/CameraImages/CCTV71/RT/rt.jpg"
  },
  {
    "id": "V1700063",
    "org": "臺南市車行地下道",
    "name": "東寧地下道",
    "city": "臺南市",
    "town": "東區",
    "lon": 120.21369,
    "lat": 22.99319,
    "url": "https://wrbweb3.tainan.gov.tw/CameraImages/CCTV72/RT/rt.jpg"
  },
  {
    "id": "V1700064",
    "org": "臺南市車行地下道",
    "name": "府連地下道",
    "city": "臺南市",
    "town": "東區",
    "lon": 120.21365,
    "lat": 22.98553,
    "url": "https://wrbweb3.tainan.gov.tw/CameraImages/CCTV73/RT/rt.jpg"
  },
  {
    "id": "V1700065",
    "org": "臺南市車行地下道",
    "name": "大同地下道",
    "city": "臺南市",
    "town": "東區",
    "lon": 120.21493,
    "lat": 22.98158,
    "url": "https://wrbweb3.tainan.gov.tw/CameraImages/CCTV74/RT/rt.jpg"
  },
  {
    "id": "V1770010",
    "org": "臺南市區域排水",
    "name": "頂洲橋",
    "city": "臺南市",
    "town": "鹽水區",
    "lon": 120.1999444,
    "lat": 23.27352778,
    "url": "https://wrbweb3.tainan.gov.tw/CameraImages/CCTV100/RT/rt.jpg"
  },
  {
    "id": "V1770011",
    "org": "臺南市區域排水",
    "name": "舊營橋",
    "city": "臺南市",
    "town": "鹽水區",
    "lon": 120.2615,
    "lat": 23.30683333,
    "url": "https://wrbweb3.tainan.gov.tw/CameraImages/CCTV101/RT/rt.jpg"
  },
  {
    "id": "V1770012",
    "org": "臺南市區域排水",
    "name": "官田路閘",
    "city": "臺南市",
    "town": "官田區",
    "lon": 120.3304444,
    "lat": 23.16736111,
    "url": "https://wrbweb3.tainan.gov.tw/CameraImages/CCTV102/RT/rt.jpg"
  },
  {
    "id": "V1770013",
    "org": "臺南市區域排水",
    "name": "明達橋",
    "city": "臺南市",
    "town": "新營區",
    "lon": 120.2743056,
    "lat": 23.31083333,
    "url": "https://wrbweb3.tainan.gov.tw/CameraImages/CCTV103/RT/rt.jpg"
  },
  {
    "id": "V1770014",
    "org": "臺南市區域排水",
    "name": "學甲26號岸內分洪",
    "city": "臺南市",
    "town": "學甲區",
    "lon": 120.1923611,
    "lat": 23.26755556,
    "url": "https://wrbweb3.tainan.gov.tw/CameraImages/CCTV104/RT/rt.jpg"
  },
  {
    "id": "V1770015",
    "org": "臺南市區域排水",
    "name": "營後排水出口",
    "city": "臺南市",
    "town": "麻豆區",
    "lon": 120.1994444,
    "lat": 23.20677778,
    "url": "https://wrbweb3.tainan.gov.tw/CameraImages/CCTV105/RT/rt.jpg"
  },
  {
    "id": "V1770016",
    "org": "臺南市區域排水",
    "name": "文化站",
    "city": "臺南市",
    "town": "永康區",
    "lon": 120.2544444,
    "lat": 23.01297222,
    "url": "https://wrbweb3.tainan.gov.tw/CameraImages/CCTV106/RT/rt.jpg"
  },
  {
    "id": "V1770017",
    "org": "臺南市區域排水",
    "name": "魚寮橋",
    "city": "臺南市",
    "town": "後壁區",
    "lon": 120.3405389,
    "lat": 23.36912222,
    "url": "https://wrbweb3.tainan.gov.tw/CameraImages/CCTV132/RT/rt.jpg"
  },
  {
    "id": "V1770018",
    "org": "臺南市區域排水",
    "name": "天保厝橋",
    "city": "臺南市",
    "town": "鹽水區",
    "lon": 120.2358167,
    "lat": 23.26668611,
    "url": "https://wrbweb3.tainan.gov.tw/CameraImages/CCTV133/RT/rt.jpg"
  },
  {
    "id": "V1770019",
    "org": "臺南市區域排水",
    "name": "學甲15號水門",
    "city": "臺南市",
    "town": "鹽水區",
    "lon": 120.1937889,
    "lat": 23.27103611,
    "url": "https://wrbweb3.tainan.gov.tw/CameraImages/CCTV134/RT/rt.jpg"
  },
  {
    "id": "V1770020",
    "org": "臺南市區域排水",
    "name": "番子田排水出口閘門",
    "city": "臺南市",
    "town": "官田區",
    "lon": 120.3008889,
    "lat": 23.18202778,
    "url": "https://wrbweb3.tainan.gov.tw/CameraImages/CCTV135/RT/rt.jpg"
  },
  {
    "id": "V1770021",
    "org": "臺南市區域排水",
    "name": "山上排水出口",
    "city": "臺南市",
    "town": "善化區",
    "lon": 120.3373611,
    "lat": 23.13627778,
    "url": "https://wrbweb3.tainan.gov.tw/CameraImages/CCTV136/RT/rt.jpg"
  },
  {
    "id": "V1770022",
    "org": "臺南市區域排水",
    "name": "菁寮排水出口閘門",
    "city": "臺南市",
    "town": "後壁區",
    "lon": 120.2890556,
    "lat": 23.35591667,
    "url": "https://wrbweb3.tainan.gov.tw/CameraImages/CCTV137/RT/rt.jpg"
  },
  {
    "id": "V1770501",
    "org": "臺南市區域排水",
    "name": "菁寮橋",
    "city": "臺南市",
    "town": "後壁區",
    "lon": 120.3326222,
    "lat": 23.37773056,
    "url": "https://wrbweb3.tainan.gov.tw/CameraImages/CCTV501/RT/rt.jpg"
  },
  {
    "id": "V1770503",
    "org": "臺南市區域排水",
    "name": "八老爺橋",
    "city": "臺南市",
    "town": "柳營區",
    "lon": 120.2961111,
    "lat": 23.27652778,
    "url": "https://wrbweb3.tainan.gov.tw/CameraImages/CCTV503/RT/rt.jpg"
  },
  {
    "id": "V1770504",
    "org": "臺南市區域排水",
    "name": "龍山漁港",
    "city": "臺南市",
    "town": "七股區",
    "lon": 120.1107833,
    "lat": 23.13740556,
    "url": "https://wrbweb3.tainan.gov.tw/CameraImages/CCTV504/RT/rt.jpg"
  },
  {
    "id": "V1770505",
    "org": "臺南市其他",
    "name": "灣裡路88巷",
    "city": "臺南市",
    "town": "南區",
    "lon": 120.1795639,
    "lat": 22.93091389,
    "url": "https://wrbweb3.tainan.gov.tw/CameraImages/CCTV505/RT/rt.jpg"
  },
  {
    "id": "V1770506",
    "org": "臺南市其他",
    "name": "萬年路81巷",
    "city": "臺南市",
    "town": "南區",
    "lon": 120.1843806,
    "lat": 22.93399167,
    "url": "https://wrbweb3.tainan.gov.tw/CameraImages/CCTV506/RT/rt.jpg"
  },
  {
    "id": "V1770507",
    "org": "臺南市其他",
    "name": "復興路高速公路涵洞",
    "city": "臺南市",
    "town": "永康區",
    "lon": 120.2485417,
    "lat": 22.99876111,
    "url": "https://wrbweb3.tainan.gov.tw/CameraImages/CCTV507/RT/rt.jpg"
  },
  {
    "id": "V1770508",
    "org": "臺南市區域排水",
    "name": "將軍中排1號水門",
    "city": "臺南市",
    "town": "將軍區",
    "lon": 120.1347389,
    "lat": 23.21606111,
    "url": "https://wrbweb3.tainan.gov.tw/CameraImages/CCTV508/RT/rt.jpg"
  },
  {
    "id": "V1770510",
    "org": "臺南市區域排水",
    "name": "八老爺排水出口",
    "city": "臺南市",
    "town": "柳營區",
    "lon": 120.2905,
    "lat": 23.26236111,
    "url": "https://wrbweb3.tainan.gov.tw/CameraImages/CCTV510/RT/rt.jpg"
  },
  {
    "id": "V1770235",
    "org": "臺南市其他",
    "name": "台86縣道1號(喜樹大排)",
    "city": "臺南市",
    "town": "南區",
    "lon": 120.1809444,
    "lat": 22.9361,
    "url": "https://wrbweb3.tainan.gov.tw/CameraImages/CCTV150/RT/rt.jpg"
  },
  {
    "id": "V1770236",
    "org": "臺南市其他",
    "name": "台86縣道2號(分洪道)",
    "city": "臺南市",
    "town": "南區",
    "lon": 120.1808472,
    "lat": 22.93594444,
    "url": "https://wrbweb3.tainan.gov.tw/CameraImages/CCTV149/RT/rt.jpg"
  },
  {
    "id": "V1770237",
    "org": "臺南市其他",
    "name": "台86縣道3號(17線)",
    "city": "臺南市",
    "town": "南區",
    "lon": 120.17605,
    "lat": 22.93598611,
    "url": "https://wrbweb3.tainan.gov.tw/CameraImages/CCTV151/RT/rt.jpg"
  },
  {
    "id": "V1770238",
    "org": "臺南市其他",
    "name": "梭魚橋",
    "city": "臺南市",
    "town": "仁德區",
    "lon": 120.194759,
    "lat": 22.921334,
    "url": "https://wrbweb3.tainan.gov.tw/CameraImages/CCTV152/RT/rt.jpg"
  },
  {
    "id": "V1770239",
    "org": "臺南市其他",
    "name": "鯽魚橋",
    "city": "臺南市",
    "town": "南區",
    "lon": 120.1925135,
    "lat": 22.92313485,
    "url": "https://wrbweb3.tainan.gov.tw/CameraImages/CCTV153/RT/rt.jpg"
  },
  {
    "id": "V1770240",
    "org": "臺南市其他",
    "name": "渡槽橋北側平台",
    "city": "臺南市",
    "town": "官田區",
    "lon": 120.3399038,
    "lat": 23.1560023,
    "url": "https://wrbweb3.tainan.gov.tw/CameraImages/CCTV154/RT/rt.jpg"
  },
  {
    "id": "V1770241",
    "org": "臺南市其他",
    "name": "渡槽橋南側平台",
    "city": "臺南市",
    "town": "善化區",
    "lon": 120.3367584,
    "lat": 23.15220546,
    "url": "https://wrbweb3.tainan.gov.tw/CameraImages/CCTV155/RT/rt.jpg"
  },
  {
    "id": "V1770511",
    "org": "臺南市區域排水",
    "name": "蘇厝滯洪池進水口",
    "city": "臺南市",
    "town": "麻豆區",
    "lon": 120.2546917,
    "lat": 23.14055,
    "url": "https://wrbweb3.tainan.gov.tw/CameraImages/CCTV511/RT/rt.jpg"
  },
  {
    "id": "V1770512",
    "org": "臺南市區域排水",
    "name": "蘇厝滯洪池體",
    "city": "臺南市",
    "town": "安定區",
    "lon": 120.2481667,
    "lat": 23.13179167,
    "url": "https://wrbweb3.tainan.gov.tw/CameraImages/CCTV512/RT/rt.jpg"
  },
  {
    "id": "V1770514",
    "org": "臺南市區域排水",
    "name": "櫻花社區滯洪池",
    "city": "臺南市",
    "town": "柳營區",
    "lon": 120.3078722,
    "lat": 23.27380278,
    "url": "https://wrbweb3.tainan.gov.tw/CameraImages/CCTV514/RT/rt.jpg"
  },
  {
    "id": "V1770513",
    "org": "臺南市區域排水",
    "name": "蘇厝滯洪池出水口(水尺)",
    "city": "臺南市",
    "town": "安定區",
    "lon": 120.2481139,
    "lat": 23.13110833,
    "url": "https://wrbweb3.tainan.gov.tw/CameraImages/CCTV513/RT/rt.jpg"
  },
  {
    "id": "V1770534",
    "org": "臺南市區域排水",
    "name": "網寮橋",
    "city": "臺南市",
    "town": "永康區",
    "lon": 120.2504639,
    "lat": 22.99857778,
    "url": "https://wrbweb3.tainan.gov.tw/CameraImages/CCTV534/RT/rt.jpg"
  },
  {
    "id": "V1770535",
    "org": "臺南市區域排水",
    "name": "總頭橋",
    "city": "臺南市",
    "town": "安南區",
    "lon": 120.208475,
    "lat": 23.05729722,
    "url": "https://wrbweb3.tainan.gov.tw/CameraImages/CCTV535/RT/rt.jpg"
  },
  {
    "id": "V1770515",
    "org": "臺南市區域排水",
    "name": "科里一號橋",
    "city": "臺南市",
    "town": "東山區",
    "lon": 120.4123806,
    "lat": 23.30480833,
    "url": "https://wrbweb3.tainan.gov.tw/CameraImages/CCTV515/RT/rt.jpg"
  },
  {
    "id": "V1770516",
    "org": "臺南市區域排水",
    "name": "蔦松橋",
    "city": "臺南市",
    "town": "鹽水區",
    "lon": 120.2722056,
    "lat": 23.32391111,
    "url": "https://wrbweb3.tainan.gov.tw/CameraImages/CCTV516/RT/rt.jpg"
  },
  {
    "id": "V1770517",
    "org": "臺南市區域排水",
    "name": "興農橋",
    "city": "臺南市",
    "town": "鹽水區",
    "lon": 120.2439139,
    "lat": 23.30626944,
    "url": "https://wrbweb3.tainan.gov.tw/CameraImages/CCTV517/RT/rt.jpg"
  },
  {
    "id": "V1770518",
    "org": "臺南市區域排水",
    "name": "歡門橋",
    "city": "臺南市",
    "town": "鹽水區",
    "lon": 120.2208778,
    "lat": 23.28619722,
    "url": "https://wrbweb3.tainan.gov.tw/CameraImages/CCTV518/RT/rt.jpg"
  },
  {
    "id": "V1770519",
    "org": "臺南市區域排水",
    "name": "永安宮前",
    "city": "臺南市",
    "town": "麻豆區",
    "lon": 120.2281833,
    "lat": 23.19588333,
    "url": "https://wrbweb3.tainan.gov.tw/CameraImages/CCTV519/RT/rt.jpg"
  },
  {
    "id": "V1770520",
    "org": "臺南市區域排水",
    "name": "北門22號水門",
    "city": "臺南市",
    "town": "北門區",
    "lon": 120.1351472,
    "lat": 23.26672778,
    "url": "https://wrbweb3.tainan.gov.tw/CameraImages/CCTV520/RT/rt.jpg"
  },
  {
    "id": "V1770521",
    "org": "臺南市區域排水",
    "name": "北門11號水門",
    "city": "臺南市",
    "town": "北門區",
    "lon": 120.12635,
    "lat": 23.29899444,
    "url": "https://wrbweb3.tainan.gov.tw/CameraImages/CCTV521/RT/rt.jpg"
  },
  {
    "id": "V1770522",
    "org": "臺南市區域排水",
    "name": "城內3號水門",
    "city": "臺南市",
    "town": "七股區",
    "lon": 120.1336806,
    "lat": 23.17725278,
    "url": "https://wrbweb3.tainan.gov.tw/CameraImages/CCTV522/RT/rt.jpg"
  },
  {
    "id": "V1770523",
    "org": "臺南市區域排水",
    "name": "廣山滯洪池",
    "city": "臺南市",
    "town": "將軍區",
    "lon": 120.1146028,
    "lat": 23.21866667,
    "url": "https://wrbweb3.tainan.gov.tw/CameraImages/CCTV523/RT/rt.jpg"
  },
  {
    "id": "V1770524",
    "org": "臺南市區域排水",
    "name": "西灣里滯洪池",
    "city": "臺南市",
    "town": "永康區",
    "lon": 120.2634611,
    "lat": 23.01485833,
    "url": "https://wrbweb3.tainan.gov.tw/CameraImages/CCTV524/RT/rt.jpg"
  },
  {
    "id": "V1770525",
    "org": "臺南市區域排水",
    "name": "大埤中排二出口閘門",
    "city": "臺南市",
    "town": "學甲區",
    "lon": 120.2198056,
    "lat": 23.23198333,
    "url": "https://wrbweb3.tainan.gov.tw/CameraImages/CCTV525/RT/rt.jpg"
  },
  {
    "id": "V1770526",
    "org": "臺南市區域排水",
    "name": "菁寮橋前抽水平台",
    "city": "臺南市",
    "town": "後壁區",
    "lon": 120.3332278,
    "lat": 23.37784722,
    "url": "https://wrbweb3.tainan.gov.tw/CameraImages/CCTV526/RT/rt.jpg"
  },
  {
    "id": "V1770527",
    "org": "臺南市區域排水",
    "name": "竹圍後橋",
    "city": "臺南市",
    "town": "後壁區",
    "lon": 120.2966278,
    "lat": 23.34135278,
    "url": "https://wrbweb3.tainan.gov.tw/CameraImages/CCTV527/RT/rt.jpg"
  },
  {
    "id": "V1770528",
    "org": "臺南市區域排水",
    "name": "新東橋",
    "city": "臺南市",
    "town": "後壁區",
    "lon": 120.3272583,
    "lat": 23.33860833,
    "url": "https://wrbweb3.tainan.gov.tw/CameraImages/CCTV528/RT/rt.jpg"
  },
  {
    "id": "V1770529",
    "org": "臺南市區域排水",
    "name": "大腳腿排水出口閘門",
    "city": "臺南市",
    "town": "柳營區",
    "lon": 120.3426667,
    "lat": 23.29466667,
    "url": "https://wrbweb3.tainan.gov.tw/CameraImages/CCTV529/RT/rt.jpg"
  },
  {
    "id": "V1770530",
    "org": "臺南市區域排水",
    "name": "德安橋",
    "city": "臺南市",
    "town": "學甲區",
    "lon": 120.1943889,
    "lat": 23.24805556,
    "url": "https://wrbweb3.tainan.gov.tw/CameraImages/CCTV530/RT/rt.jpg"
  },
  {
    "id": "V1770531",
    "org": "臺南市區域排水",
    "name": "石子瀨沈砂池",
    "city": "臺南市",
    "town": "大內區",
    "lon": 120.3529694,
    "lat": 23.131675,
    "url": "https://wrbweb3.tainan.gov.tw/CameraImages/CCTV531/RT/rt.jpg"
  },
  {
    "id": "V1770532",
    "org": "臺南市區域排水",
    "name": "豐和社區",
    "city": "臺南市",
    "town": "學甲區",
    "lon": 120.2017861,
    "lat": 23.21733611,
    "url": "https://wrbweb3.tainan.gov.tw/CameraImages/CCTV532/RT/rt.jpg"
  },
  {
    "id": "V1770533",
    "org": "臺南市區域排水",
    "name": "海尾橋",
    "city": "臺南市",
    "town": "安南區",
    "lon": 120.1656472,
    "lat": 23.03233611,
    "url": "https://wrbweb3.tainan.gov.tw/CameraImages/CCTV533/RT/rt.jpg"
  },
  {
    "id": "V1770251",
    "org": "臺南市區域排水",
    "name": "新吉滯洪池1號(經發局)",
    "city": "臺南市",
    "town": "安南區",
    "lon": 120.1821389,
    "lat": 23.07363889,
    "url": "https://wrbweb3.tainan.gov.tw/CameraImages/CCTV165/RT/rt.jpg"
  },
  {
    "id": "V1770252",
    "org": "臺南市區域排水",
    "name": "新吉滯洪池2號(經發局)",
    "city": "臺南市",
    "town": "安南區",
    "lon": 120.1877222,
    "lat": 23.07302778,
    "url": "https://wrbweb3.tainan.gov.tw/CameraImages/CCTV166/RT/rt.jpg"
  },
  {
    "id": "V1770253",
    "org": "臺南市區域排水",
    "name": "新吉滯洪池3號(經發局)",
    "city": "臺南市",
    "town": "安南區",
    "lon": 120.1818611,
    "lat": 23.07269444,
    "url": "https://wrbweb3.tainan.gov.tw/CameraImages/CCTV167/RT/rt.jpg"
  },
  {
    "id": "V1770254",
    "org": "臺南市區域排水",
    "name": "新吉滯洪池4號(經發局)",
    "city": "臺南市",
    "town": "安南區",
    "lon": 120.1819444,
    "lat": 23.0725,
    "url": "https://wrbweb3.tainan.gov.tw/CameraImages/CCTV168/RT/rt.jpg"
  },
  {
    "id": "V1770537",
    "org": "臺南市區域排水",
    "name": "玄武橋",
    "city": "臺南市",
    "town": "下營區",
    "lon": 120.2694944,
    "lat": 23.22094167,
    "url": "https://wrbweb3.tainan.gov.tw/CameraImages/CCTV537/RT/rt.jpg"
  },
  {
    "id": "V1770541",
    "org": "臺南市區域排水",
    "name": "橋頭港橋",
    "city": "臺南市",
    "town": "下營區",
    "lon": 120.2836944,
    "lat": 23.23003611,
    "url": "https://wrbweb3.tainan.gov.tw/CameraImages/CCTV541/RT/rt.jpg"
  },
  {
    "id": "V1770539",
    "org": "臺南市區域排水",
    "name": "北門4號水門",
    "city": "臺南市",
    "town": "北門區",
    "lon": 120.1080833,
    "lat": 23.24248611,
    "url": "https://wrbweb3.tainan.gov.tw/CameraImages/CCTV539/RT/rt.jpg"
  },
  {
    "id": "V1770538",
    "org": "臺南市區域排水",
    "name": "港口滯洪池",
    "city": "臺南市",
    "town": "安定區",
    "lon": 120.2368417,
    "lat": 23.08625,
    "url": "https://wrbweb3.tainan.gov.tw/CameraImages/CCTV538/RT/rt.jpg"
  },
  {
    "id": "V1770540",
    "org": "臺南市區域排水",
    "name": "北馬應急站1號水門",
    "city": "臺南市",
    "town": "北門區",
    "lon": 120.1545528,
    "lat": 23.30845,
    "url": "https://wrbweb3.tainan.gov.tw/CameraImages/CCTV540/RT/rt.jpg"
  },
  {
    "id": "V1770536",
    "org": "臺南市區域排水",
    "name": "聖賢橋",
    "city": "臺南市",
    "town": "東山區",
    "lon": 120.3651444,
    "lat": 23.30186111,
    "url": "https://wrbweb3.tainan.gov.tw/CameraImages/CCTV536/RT/rt.jpg"
  },
  {
    "id": "TNT001",
    "org": "各縣市交通局",
    "name": "大同路一段與開山路與府連路口東桿(向東)",
    "city": "臺南市",
    "town": "東區",
    "lon": 120.211227,
    "lat": 22.984853,
    "url": "https://trafficvideo2.tainan.gov.tw/b596d902"
  },
  {
    "id": "TNT002",
    "org": "各縣市交通局",
    "name": "大同路一段與開山路與府連路口南桿(向南)",
    "city": "臺南市",
    "town": "中西區",
    "lon": 120.211176,
    "lat": 22.98482,
    "url": "https://trafficvideo2.tainan.gov.tw/54b2e135"
  },
  {
    "id": "TNT003",
    "org": "各縣市交通局",
    "name": "大同路二段與健康路一段口(北桿)",
    "city": "臺南市",
    "town": "東區",
    "lon": 120.212005,
    "lat": 22.981296,
    "url": "https://trafficvideo.tainan.gov.tw/172022003100"
  },
  {
    "id": "TNT004",
    "org": "各縣市交通局",
    "name": "大同路二段與健康路一段口(西桿)-1",
    "city": "臺南市",
    "town": "南區",
    "lon": 120.211968,
    "lat": 22.981136,
    "url": "https://trafficvideo.tainan.gov.tw/172022005100"
  },
  {
    "id": "TNT005",
    "org": "各縣市交通局",
    "name": "大同路二段與健康路一段口(西桿)-2",
    "city": "臺南市",
    "town": "南區",
    "lon": 120.2118,
    "lat": 22.981136,
    "url": "https://trafficvideo.tainan.gov.tw/172022005200"
  },
  {
    "id": "TNT006",
    "org": "各縣市交通局",
    "name": "大同路二段與健康路一段口(東桿)-1",
    "city": "臺南市",
    "town": "東區",
    "lon": 120.21215,
    "lat": 22.981024,
    "url": "https://trafficvideo.tainan.gov.tw/172022006100"
  },
  {
    "id": "TNT007",
    "org": "各縣市交通局",
    "name": "大同路二段與健康路一段口(東桿)-2",
    "city": "臺南市",
    "town": "東區",
    "lon": 120.212249,
    "lat": 22.981024,
    "url": "https://trafficvideo.tainan.gov.tw/172022006200"
  },
  {
    "id": "TNT008",
    "org": "各縣市交通局",
    "name": "大同路二段與健康路一段口(南桿)",
    "city": "臺南市",
    "town": "南區",
    "lon": 120.212297,
    "lat": 22.980709,
    "url": "https://trafficvideo.tainan.gov.tw/172022004100"
  },
  {
    "id": "TNT009",
    "org": "各縣市交通局",
    "name": "大同路二段與國民路口北桿(向南)",
    "city": "臺南市",
    "town": "南區",
    "lon": 120.215885,
    "lat": 22.967471,
    "url": "https://trafficvideo.tainan.gov.tw/705eee1e"
  },
  {
    "id": "TNT010",
    "org": "各縣市交通局",
    "name": "小東路與小東路147巷口(西向)",
    "city": "臺南市",
    "town": "北區",
    "lon": 120.226632,
    "lat": 23.00024,
    "url": "https://trafficvideo.tainan.gov.tw/bb2a361a"
  },
  {
    "id": "TNT011",
    "org": "各縣市交通局",
    "name": "小東路與小東路147巷口(東向)",
    "city": "臺南市",
    "town": "北區",
    "lon": 120.226632,
    "lat": 23.00024,
    "url": "https://trafficvideo.tainan.gov.tw/7296fb51"
  },
  {
    "id": "TNT012",
    "org": "各縣市交通局",
    "name": "小東路與中華東路一段口北桿(向南)",
    "city": "臺南市",
    "town": "永康區",
    "lon": 120.234717,
    "lat": 22.998558,
    "url": "https://trafficvideo2.tainan.gov.tw/43fb527c"
  },
  {
    "id": "TNT013",
    "org": "各縣市交通局",
    "name": "小東路與中華東路一段口西桿(向東)",
    "city": "臺南市",
    "town": "東區",
    "lon": 120.234552,
    "lat": 22.998424,
    "url": "https://trafficvideo2.tainan.gov.tw/942eb11e"
  },
  {
    "id": "TNT014",
    "org": "各縣市交通局",
    "name": "中山路與民族路二段口(北桿)",
    "city": "臺南市",
    "town": "中西區",
    "lon": 120.208585,
    "lat": 22.994812,
    "url": "https://trafficvideo.tainan.gov.tw/bc5a0c42"
  },
  {
    "id": "TNT015",
    "org": "各縣市交通局",
    "name": "中山路與民族路二段口(南桿)",
    "city": "臺南市",
    "town": "中西區",
    "lon": 120.208425,
    "lat": 22.994699,
    "url": "https://trafficvideo.tainan.gov.tw/1159e087"
  },
  {
    "id": "TNT016",
    "org": "各縣市交通局",
    "name": "中正路與忠義路二段口南桿(向南)",
    "city": "臺南市",
    "town": "中西區",
    "lon": 120.202755,
    "lat": 22.9918,
    "url": "https://trafficvideo2.tainan.gov.tw/82520774"
  },
  {
    "id": "TNT017",
    "org": "各縣市交通局",
    "name": "中正路與海安路二段口南桿(向北)",
    "city": "臺南市",
    "town": "中西區",
    "lon": 120.196114,
    "lat": 22.99312,
    "url": "https://trafficvideo2.tainan.gov.tw/e3538e54"
  },
  {
    "id": "TNT018",
    "org": "各縣市交通局",
    "name": "中華西路一段與健康路二段口(向南)",
    "city": "臺南市",
    "town": "南區",
    "lon": 120.185741,
    "lat": 22.981255,
    "url": "https://trafficvideo.tainan.gov.tw/b7d0ed63"
  },
  {
    "id": "TNT019",
    "org": "各縣市交通局",
    "name": "中華西路二段與民權路四段口北桿(向南)",
    "city": "臺南市",
    "town": "中西區",
    "lon": 120.186751,
    "lat": 22.999134,
    "url": "https://trafficvideo.tainan.gov.tw/2e4f2c79"
  },
  {
    "id": "TNT020",
    "org": "各縣市交通局",
    "name": "中華西路二段與永華路一段口東桿(向西)",
    "city": "臺南市",
    "town": "中西區",
    "lon": 120.187102,
    "lat": 22.989024,
    "url": "https://trafficvideo.tainan.gov.tw/32a097df"
  },
  {
    "id": "TNT021",
    "org": "各縣市交通局",
    "name": "中華西路二段與永華路一段口南桿(向北)",
    "city": "臺南市",
    "town": "中西區",
    "lon": 120.186922,
    "lat": 22.98891,
    "url": "https://trafficvideo2.tainan.gov.tw/a750dee6"
  },
  {
    "id": "TNT022",
    "org": "各縣市交通局",
    "name": "中華西路二段與和緯路五段口北桿(向北)",
    "city": "臺南市",
    "town": "北區",
    "lon": 120.186157,
    "lat": 23.007047,
    "url": "https://trafficvideo.tainan.gov.tw/d9a58129"
  },
  {
    "id": "TNT023",
    "org": "各縣市交通局",
    "name": "中華西路二段與和緯路五段口南桿(向南)",
    "city": "臺南市",
    "town": "中西區",
    "lon": 120.186272,
    "lat": 23.006608,
    "url": "https://trafficvideo.tainan.gov.tw/064550f2"
  },
  {
    "id": "TNT024",
    "org": "各縣市交通局",
    "name": "中華西路二段與府前路二段口東桿(向東)",
    "city": "臺南市",
    "town": "中西區",
    "lon": 120.186953,
    "lat": 22.99266,
    "url": "https://trafficvideo.tainan.gov.tw/6a0feb9b"
  },
  {
    "id": "TNT025",
    "org": "各縣市交通局",
    "name": "中華西路二段與建平十六街口東桿(向北)",
    "city": "臺南市",
    "town": "中西區",
    "lon": 120.186519,
    "lat": 22.996534,
    "url": "https://trafficvideo.tainan.gov.tw/fda98b59"
  },
  {
    "id": "TNT026",
    "org": "各縣市交通局",
    "name": "中華西路二段與建平十六街口南桿(向北)",
    "city": "臺南市",
    "town": "中西區",
    "lon": 120.186415,
    "lat": 22.996474,
    "url": "https://trafficvideo.tainan.gov.tw/c465bf94"
  },
  {
    "id": "TNT027",
    "org": "各縣市交通局",
    "name": "中華東路二段與東門路二段口西北桿(向西北)",
    "city": "臺南市",
    "town": "東區",
    "lon": 120.229229,
    "lat": 22.981268,
    "url": "https://trafficvideo.tainan.gov.tw/22fb191f"
  },
  {
    "id": "TNT028",
    "org": "各縣市交通局",
    "name": "中華東路二段與東門路二段口東北桿(向東北)",
    "city": "臺南市",
    "town": "東區",
    "lon": 120.229531,
    "lat": 22.98132,
    "url": "https://trafficvideo.tainan.gov.tw/beabed1d"
  },
  {
    "id": "TNT029",
    "org": "各縣市交通局",
    "name": "中華東路三段與大同路二段口南桿(向北)",
    "city": "臺南市",
    "town": "南區",
    "lon": 120.214875,
    "lat": 22.972199,
    "url": "https://trafficvideo.tainan.gov.tw/51f4c476"
  },
  {
    "id": "TNT030",
    "org": "各縣市交通局",
    "name": "仁德區 二仁路二段與文華路二段口北桿(向南)",
    "city": "臺南市",
    "town": "仁德區",
    "lon": 120.220989,
    "lat": 22.937433,
    "url": "https://trafficvideo2.tainan.gov.tw/c4e4218e"
  },
  {
    "id": "TNT031",
    "org": "各縣市交通局",
    "name": "仁德區 中山路與文華路三段口西桿(向東)",
    "city": "臺南市",
    "town": "仁德區",
    "lon": 120.243859,
    "lat": 22.973847,
    "url": "https://trafficvideo2.tainan.gov.tw/cf2ec896"
  },
  {
    "id": "TNT032",
    "org": "各縣市交通局",
    "name": "仁德區 中山路與文華路三段口東桿(向西)",
    "city": "臺南市",
    "town": "仁德區",
    "lon": 120.244066,
    "lat": 22.973791,
    "url": "https://trafficvideo2.tainan.gov.tw/5acd435e"
  },
  {
    "id": "TNT033",
    "org": "各縣市交通局",
    "name": "仁德區 中山路與高速一街口南桿(向南)",
    "city": "臺南市",
    "town": "仁德區",
    "lon": 120.249856,
    "lat": 22.971845,
    "url": "https://trafficvideo2.tainan.gov.tw/6a8efbdb"
  },
  {
    "id": "TNT034",
    "org": "各縣市交通局",
    "name": "仁德區 中山路與國1南下上匝道路口西桿(向西)",
    "city": "臺南市",
    "town": "仁德區",
    "lon": 120.248724,
    "lat": 22.972398,
    "url": "https://trafficvideo2.tainan.gov.tw/bf52d154"
  },
  {
    "id": "TNT035",
    "org": "各縣市交通局",
    "name": "仁德區 太子路與裕德街口南側(向南)",
    "city": "臺南市",
    "town": "仁德區",
    "lon": 120.248552,
    "lat": 22.990713,
    "url": "https://trafficvideo2.tainan.gov.tw/65095d75"
  },
  {
    "id": "TNT036",
    "org": "各縣市交通局",
    "name": "仁德區 文德路與中山路口(西向)",
    "city": "臺南市",
    "town": "仁德區",
    "lon": 120.248048,
    "lat": 22.97265,
    "url": "https://trafficvideo2.tainan.gov.tw/50794012"
  },
  {
    "id": "TNT037",
    "org": "各縣市交通局",
    "name": "仁德區 文德路與中山路口(東向)",
    "city": "臺南市",
    "town": "仁德區",
    "lon": 120.248048,
    "lat": 22.97265,
    "url": "https://trafficvideo2.tainan.gov.tw/3880e436"
  },
  {
    "id": "TNT038",
    "org": "各縣市交通局",
    "name": "公園路與公園路377巷口(北向)",
    "city": "臺南市",
    "town": "北區",
    "lon": 120.210354,
    "lat": 23.00606,
    "url": "https://trafficvideo2.tainan.gov.tw/5ab7cfb1"
  },
  {
    "id": "TNT039",
    "org": "各縣市交通局",
    "name": "公園路與公園路377巷口(南向)",
    "city": "臺南市",
    "town": "北區",
    "lon": 120.210192,
    "lat": 23.006287,
    "url": "https://trafficvideo2.tainan.gov.tw/e4bf774c"
  },
  {
    "id": "TNT040",
    "org": "各縣市交通局",
    "name": "公園路與成功路口(西桿)",
    "city": "臺南市",
    "town": "北區",
    "lon": 120.206867,
    "lat": 22.99808,
    "url": "https://trafficvideo.tainan.gov.tw/b80aa7ab"
  },
  {
    "id": "TNT041",
    "org": "各縣市交通局",
    "name": "公園路與成功路口(東桿)",
    "city": "臺南市",
    "town": "北區",
    "lon": 120.207031,
    "lat": 22.998055,
    "url": "https://trafficvideo.tainan.gov.tw/23bc9f21"
  },
  {
    "id": "TNT042",
    "org": "各縣市交通局",
    "name": "水景公園停車場",
    "city": "臺南市",
    "town": "安平區",
    "lon": 120.158106,
    "lat": 22.999172,
    "url": "https://trafficvideo2.tainan.gov.tw/192168234002"
  },
  {
    "id": "TNT043",
    "org": "各縣市交通局",
    "name": "北門路一段與民族路二段口(西桿)",
    "city": "臺南市",
    "town": "東區",
    "lon": 120.211863,
    "lat": 22.994581,
    "url": "https://trafficvideo.tainan.gov.tw/6a130eaf"
  },
  {
    "id": "TNT044",
    "org": "各縣市交通局",
    "name": "北門路一段與民族路二段口(東桿)",
    "city": "臺南市",
    "town": "中西區",
    "lon": 120.211729,
    "lat": 22.99447,
    "url": "https://trafficvideo.tainan.gov.tw/9a0611a0"
  },
  {
    "id": "TNT045",
    "org": "各縣市交通局",
    "name": "北門路二段與小東路口西桿(向東)",
    "city": "臺南市",
    "town": "北區",
    "lon": 120.212995,
    "lat": 23.001737,
    "url": "https://trafficvideo.tainan.gov.tw/58318e0c"
  },
  {
    "id": "TNT046",
    "org": "各縣市交通局",
    "name": "北門路二段與東豐路口東桿(向東)",
    "city": "臺南市",
    "town": "北區",
    "lon": 120.213803,
    "lat": 23.003868,
    "url": "https://trafficvideo.tainan.gov.tw/086adf65"
  },
  {
    "id": "TNT047",
    "org": "各縣市交通局",
    "name": "台江大道一段與開安路口西桿(向東)",
    "city": "臺南市",
    "town": "安南區",
    "lon": 120.225444,
    "lat": 23.051426,
    "url": "https://trafficvideo2.tainan.gov.tw/a1de3a3f"
  },
  {
    "id": "TNT048",
    "org": "各縣市交通局",
    "name": "台南火車站站前北桿(向西)",
    "city": "臺南市",
    "town": "北區",
    "lon": 120.212162,
    "lat": 22.997561,
    "url": "https://trafficvideo2.tainan.gov.tw/9dd4e804"
  },
  {
    "id": "TNT049",
    "org": "各縣市交通局",
    "name": "民生路一段與忠義路二段口(向西)",
    "city": "臺南市",
    "town": "中西區",
    "lon": 120.203148,
    "lat": 22.993321,
    "url": "https://trafficvideo2.tainan.gov.tw/0fd0a1cc"
  },
  {
    "id": "TNT050",
    "org": "各縣市交通局",
    "name": "民族路一段與前鋒路口南桿(向北)",
    "city": "臺南市",
    "town": "東區",
    "lon": 120.213201,
    "lat": 22.994386,
    "url": "https://trafficvideo2.tainan.gov.tw/a0c6236b"
  },
  {
    "id": "TNT051",
    "org": "各縣市交通局",
    "name": "永康區 大灣交流道南下匝道出口(向南)",
    "city": "臺南市",
    "town": "永康區",
    "lon": 120.247837,
    "lat": 23.000586,
    "url": "https://trafficvideo2.tainan.gov.tw/e5182337"
  },
  {
    "id": "TNT052",
    "org": "各縣市交通局",
    "name": "永康區 中正北路與中正北路318巷口",
    "city": "臺南市",
    "town": "永康區",
    "lon": 120.248166,
    "lat": 23.041809,
    "url": "https://trafficvideo2.tainan.gov.tw/e0029830"
  },
  {
    "id": "TNT053",
    "org": "各縣市交通局",
    "name": "永康區 中正北路與中正路口(西向)",
    "city": "臺南市",
    "town": "永康區",
    "lon": 120.238048,
    "lat": 23.041391,
    "url": "https://trafficvideo.tainan.gov.tw/8cdf6409"
  },
  {
    "id": "TNT054",
    "org": "各縣市交通局",
    "name": "永康區 中正北路與中正路口(東向)",
    "city": "臺南市",
    "town": "永康區",
    "lon": 120.238048,
    "lat": 23.041391,
    "url": "https://trafficvideo.tainan.gov.tw/add19922"
  },
  {
    "id": "TNT055",
    "org": "各縣市交通局",
    "name": "永康區 中正北路與中正路口北桿(向南)",
    "city": "臺南市",
    "town": "永康區",
    "lon": 120.237329,
    "lat": 23.041292,
    "url": "https://trafficvideo2.tainan.gov.tw/9b3299b2"
  },
  {
    "id": "TNT056",
    "org": "各縣市交通局",
    "name": "永康區 中正北路與中正路口東桿(向西)",
    "city": "臺南市",
    "town": "永康區",
    "lon": 120.237519,
    "lat": 23.041265,
    "url": "https://trafficvideo2.tainan.gov.tw/27ec7c68"
  },
  {
    "id": "TNT057",
    "org": "各縣市交通局",
    "name": "永康區 中正北路與王行路口西桿(向東)",
    "city": "臺南市",
    "town": "永康區",
    "lon": 120.27133,
    "lat": 23.053614,
    "url": "https://trafficvideo2.tainan.gov.tw/b880e5a5"
  },
  {
    "id": "TNT058",
    "org": "各縣市交通局",
    "name": "永康區 中正北路與永安路口西桿(向東)",
    "city": "臺南市",
    "town": "永康區",
    "lon": 120.246396,
    "lat": 23.04176,
    "url": "https://trafficvideo2.tainan.gov.tw/B4728484"
  },
  {
    "id": "TNT059",
    "org": "各縣市交通局",
    "name": "永康區 中正北路與永安路口南桿(向北)",
    "city": "臺南市",
    "town": "永康區",
    "lon": 120.246529,
    "lat": 23.041518,
    "url": "https://trafficvideo2.tainan.gov.tw/b7b89f55"
  },
  {
    "id": "TNT060",
    "org": "各縣市交通局",
    "name": "永康區 中正北路與國1永康交流道西側匝道路口西桿(向東)",
    "city": "臺南市",
    "town": "永康區",
    "lon": 120.249951,
    "lat": 23.041903,
    "url": "https://trafficvideo2.tainan.gov.tw/9508fab4"
  },
  {
    "id": "TNT061",
    "org": "各縣市交通局",
    "name": "永康區 中正北路與蔦松二街口東桿(向西)",
    "city": "臺南市",
    "town": "永康區",
    "lon": 120.255086,
    "lat": 23.042038,
    "url": "https://trafficvideo2.tainan.gov.tw/7483222e"
  },
  {
    "id": "TNT062",
    "org": "各縣市交通局",
    "name": "永康區 中正南路與中華路口(西向)",
    "city": "臺南市",
    "town": "永康區",
    "lon": 120.218835,
    "lat": 23.024112,
    "url": "https://trafficvideo2.tainan.gov.tw/03acfaeb"
  },
  {
    "id": "TNT063",
    "org": "各縣市交通局",
    "name": "永康區 中正南路與中華路口(東向)",
    "city": "臺南市",
    "town": "永康區",
    "lon": 120.218835,
    "lat": 23.024112,
    "url": "https://trafficvideo2.tainan.gov.tw/b182d8e9"
  },
  {
    "id": "TNT064",
    "org": "各縣市交通局",
    "name": "永康區 中正南路與中華路口西桿(向東)",
    "city": "臺南市",
    "town": "永康區",
    "lon": 120.218037,
    "lat": 23.023476,
    "url": "https://trafficvideo2.tainan.gov.tw/05c68597"
  },
  {
    "id": "TNT065",
    "org": "各縣市交通局",
    "name": "永康區 中正南路與中華路口南桿(向南)",
    "city": "臺南市",
    "town": "永康區",
    "lon": 120.218351,
    "lat": 23.023483,
    "url": "https://trafficvideo2.tainan.gov.tw/a430e931"
  },
  {
    "id": "TNT066",
    "org": "各縣市交通局",
    "name": "永康區 中華路與中央路口西桿(向東)",
    "city": "臺南市",
    "town": "永康區",
    "lon": 120.215847,
    "lat": 23.023337,
    "url": "https://trafficvideo2.tainan.gov.tw/e79d19d7"
  },
  {
    "id": "TNT067",
    "org": "各縣市交通局",
    "name": "永康區 中華路與中央路口南桿(向北)",
    "city": "臺南市",
    "town": "永康區",
    "lon": 120.215924,
    "lat": 23.0233,
    "url": "https://trafficvideo2.tainan.gov.tw/c8a6813c"
  },
  {
    "id": "TNT068",
    "org": "各縣市交通局",
    "name": "永康區 中華路與甲頂路口右南桿(向北)",
    "city": "臺南市",
    "town": "永康區",
    "lon": 120.2216796,
    "lat": 23.02145077,
    "url": "https://trafficvideo.tainan.gov.tw/busfirst/video1/video1s2.mjpg"
  },
  {
    "id": "TNT069",
    "org": "各縣市交通局",
    "name": "永康區 中華路與甲頂路口左南桿(向北)",
    "city": "臺南市",
    "town": "永康區",
    "lon": 120.221607,
    "lat": 23.021347,
    "url": "https://trafficvideo.tainan.gov.tw/busfirst/video2/video1s2.mjpg"
  },
  {
    "id": "TNT070",
    "org": "各縣市交通局",
    "name": "永康區 北外環道路5k+750處(高架上)",
    "city": "臺南市",
    "town": "永康區",
    "lon": 120.246011,
    "lat": 23.059736,
    "url": "https://trafficvideo2.tainan.gov.tw/c5104e38"
  },
  {
    "id": "TNT071",
    "org": "各縣市交通局",
    "name": "永康區 永大路三段與永大路三段469巷口北桿(向北)",
    "city": "臺南市",
    "town": "永康區",
    "lon": 120.258769,
    "lat": 23.038775,
    "url": "https://trafficvideo2.tainan.gov.tw/9b8ce586"
  },
  {
    "id": "TNT072",
    "org": "各縣市交通局",
    "name": "永康區 永安路與平道十八街口(向南)",
    "city": "臺南市",
    "town": "永康區",
    "lon": 120.241735,
    "lat": 23.048683,
    "url": "https://trafficvideo2.tainan.gov.tw/202d7f6c"
  },
  {
    "id": "TNT073",
    "org": "各縣市交通局",
    "name": "永康區 國一迴轉道南側(向南)",
    "city": "臺南市",
    "town": "永康區",
    "lon": 120.248476,
    "lat": 22.996833,
    "url": "https://trafficvideo2.tainan.gov.tw/569dd93e"
  },
  {
    "id": "TNT074",
    "org": "各縣市交通局",
    "name": "永康區 崑大路與大灣路口南桿(向西)",
    "city": "臺南市",
    "town": "永康區",
    "lon": 120.251896,
    "lat": 22.998724,
    "url": "https://trafficvideo2.tainan.gov.tw/823b517e"
  },
  {
    "id": "TNT075",
    "org": "各縣市交通局",
    "name": "永康區 復興路與消防局前(西向)",
    "city": "臺南市",
    "town": "永康區",
    "lon": 120.244888,
    "lat": 22.998577,
    "url": "https://trafficvideo2.tainan.gov.tw/8d436ff5"
  },
  {
    "id": "TNT076",
    "org": "各縣市交通局",
    "name": "永康區 復興路與消防局前(東向)",
    "city": "臺南市",
    "town": "永康區",
    "lon": 120.244811,
    "lat": 22.998511,
    "url": "https://trafficvideo2.tainan.gov.tw/486e55d2"
  },
  {
    "id": "TNT077",
    "org": "各縣市交通局",
    "name": "永康區 復興路與高速一街南桿(向北)",
    "city": "臺南市",
    "town": "永康區",
    "lon": 120.248516,
    "lat": 22.998442,
    "url": "https://trafficvideo2.tainan.gov.tw/685f3c55"
  },
  {
    "id": "TNT078",
    "org": "各縣市交通局",
    "name": "永康區 復興路與復國路口西桿(向東)",
    "city": "臺南市",
    "town": "永康區",
    "lon": 120.246715,
    "lat": 22.998606,
    "url": "https://trafficvideo2.tainan.gov.tw/e452449h"
  },
  {
    "id": "TNT079",
    "org": "各縣市交通局",
    "name": "永康區 復興路與復興路26巷口東桿(向西)",
    "city": "臺南市",
    "town": "永康區",
    "lon": 120.249801,
    "lat": 22.998593,
    "url": "https://trafficvideo2.tainan.gov.tw/7411ad4f"
  },
  {
    "id": "TNT080",
    "org": "各縣市交通局",
    "name": "永康區 鹽水溪道路與大洲一號橋北桿(向南)",
    "city": "臺南市",
    "town": "安南區",
    "lon": 120.245691,
    "lat": 23.061505,
    "url": "https://trafficvideo2.tainan.gov.tw/f56b7cc6"
  },
  {
    "id": "TNT081",
    "org": "各縣市交通局",
    "name": "安北路與古堡街口",
    "city": "臺南市",
    "town": "安平區",
    "lon": 120.160972,
    "lat": 23.002944,
    "url": "https://trafficvideo2.tainan.gov.tw/192168234005"
  },
  {
    "id": "TNT082",
    "org": "各縣市交通局",
    "name": "安北路與民權路四段口(向東)",
    "city": "臺南市",
    "town": "安平區",
    "lon": 120.163574,
    "lat": 23.002577,
    "url": "https://trafficvideo2.tainan.gov.tw/b0dde822"
  },
  {
    "id": "TNT083",
    "org": "各縣市交通局",
    "name": "安北路與安平路口",
    "city": "臺南市",
    "town": "安平區",
    "lon": 120.167972,
    "lat": 22.99925,
    "url": "https://trafficvideo2.tainan.gov.tw/192168234006"
  },
  {
    "id": "TNT084",
    "org": "各縣市交通局",
    "name": "安和路一段與安通路四段口南桿(向南)",
    "city": "臺南市",
    "town": "安南區",
    "lon": 120.213603,
    "lat": 23.029739,
    "url": "https://trafficvideo2.tainan.gov.tw/13c518b2"
  },
  {
    "id": "TNT085",
    "org": "各縣市交通局",
    "name": "安定區 178線與安定交流道北上匝道(向西)",
    "city": "臺南市",
    "town": "安定區",
    "lon": 120.245398,
    "lat": 23.118626,
    "url": "https://trafficvideo2.tainan.gov.tw/14aad43d"
  },
  {
    "id": "TNT086",
    "org": "各縣市交通局",
    "name": "安定區 178線與直加弄大道東桿(向西)",
    "city": "臺南市",
    "town": "安定區",
    "lon": 120.25038,
    "lat": 23.124396,
    "url": "https://trafficvideo2.tainan.gov.tw/74576559"
  },
  {
    "id": "TNT087",
    "org": "各縣市交通局",
    "name": "安定區 國道8號與南133西北桿(向東)",
    "city": "臺南市",
    "town": "安定區",
    "lon": 120.23091,
    "lat": 23.082794,
    "url": "https://trafficvideo2.tainan.gov.tw/5fee1b44"
  },
  {
    "id": "TNT088",
    "org": "各縣市交通局",
    "name": "安定區 國道8號與南133東南桿(向西)",
    "city": "臺南市",
    "town": "安定區",
    "lon": 120.231003,
    "lat": 23.082399,
    "url": "https://trafficvideo2.tainan.gov.tw/01fc953c"
  },
  {
    "id": "TNT089",
    "org": "各縣市交通局",
    "name": "安通路二段與永安路口北桿(向北)",
    "city": "臺南市",
    "town": "安南區",
    "lon": 120.224453,
    "lat": 23.043204,
    "url": "https://trafficvideo2.tainan.gov.tw/67ea931f"
  },
  {
    "id": "TNT091",
    "org": "各縣市交通局",
    "name": "安億橋停車場",
    "city": "臺南市",
    "town": "安平區",
    "lon": 120.163531,
    "lat": 22.997033,
    "url": "https://trafficvideo2.tainan.gov.tw/192168234004"
  },
  {
    "id": "TNT092",
    "org": "各縣市交通局",
    "name": "西門路一段與府前路一段口(西桿)",
    "city": "臺南市",
    "town": "中西區",
    "lon": 120.197513,
    "lat": 22.990553,
    "url": "https://trafficvideo.tainan.gov.tw/172022001100"
  },
  {
    "id": "TNT093",
    "org": "各縣市交通局",
    "name": "西門路一段與府前路一段口(東桿)",
    "city": "臺南市",
    "town": "中西區",
    "lon": 120.197902,
    "lat": 22.990427,
    "url": "https://trafficvideo.tainan.gov.tw/172022002100"
  },
  {
    "id": "TNT094",
    "org": "各縣市交通局",
    "name": "西門路一段與府前路一段口(南桿)",
    "city": "臺南市",
    "town": "中西區",
    "lon": 120.197731,
    "lat": 22.990179,
    "url": "https://trafficvideo.tainan.gov.tw/172021006100"
  },
  {
    "id": "TNT095",
    "org": "各縣市交通局",
    "name": "西門路一段與健康路二段口(西桿)",
    "city": "臺南市",
    "town": "南區",
    "lon": 120.197521,
    "lat": 22.981442,
    "url": "https://trafficvideo.tainan.gov.tw/172021005100"
  },
  {
    "id": "TNT096",
    "org": "各縣市交通局",
    "name": "西門路一段與健康路二段口南桿(向北)",
    "city": "臺南市",
    "town": "南區",
    "lon": 120.197631,
    "lat": 22.981342,
    "url": "https://trafficvideo2.tainan.gov.tw/82565bca"
  },
  {
    "id": "TNT097",
    "org": "各縣市交通局",
    "name": "西門路二段與民生路二段口(北桿)",
    "city": "臺南市",
    "town": "中西區",
    "lon": 120.19923,
    "lat": 22.994598,
    "url": "https://trafficvideo.tainan.gov.tw/872b483c"
  },
  {
    "id": "TNT098",
    "org": "各縣市交通局",
    "name": "西門路二段與民生路二段口(南桿)",
    "city": "臺南市",
    "town": "中西區",
    "lon": 120.199165,
    "lat": 22.994341,
    "url": "https://trafficvideo.tainan.gov.tw/6613275b"
  },
  {
    "id": "TNT099",
    "org": "各縣市交通局",
    "name": "西門路二段與民族路二段口(西桿)",
    "city": "臺南市",
    "town": "中西區",
    "lon": 120.199703,
    "lat": 22.997602,
    "url": "https://trafficvideo.tainan.gov.tw/2defd286"
  },
  {
    "id": "TNT100",
    "org": "各縣市交通局",
    "name": "西門路二段與民族路二段口(東桿)",
    "city": "臺南市",
    "town": "中西區",
    "lon": 120.200425,
    "lat": 22.997503,
    "url": "https://trafficvideo.tainan.gov.tw/81a6ca86"
  },
  {
    "id": "TNT101",
    "org": "各縣市交通局",
    "name": "府前路一段與忠義路二段口東桿(向西)",
    "city": "臺南市",
    "town": "中西區",
    "lon": 120.202273,
    "lat": 22.989544,
    "url": "https://trafficvideo.tainan.gov.tw/e2e14cfa"
  },
  {
    "id": "TNT102",
    "org": "各縣市交通局",
    "name": "府前路一段與開山路口西桿(向西)",
    "city": "臺南市",
    "town": "中西區",
    "lon": 120.207553,
    "lat": 22.988979,
    "url": "https://trafficvideo.tainan.gov.tw/7e8d489e"
  },
  {
    "id": "TNT103",
    "org": "各縣市交通局",
    "name": "府前路二段與建平路口西桿(向東)",
    "city": "臺南市",
    "town": "安平區",
    "lon": 120.183329,
    "lat": 22.993401,
    "url": "https://trafficvideo2.tainan.gov.tw/16f3a7e0"
  },
  {
    "id": "TNT104",
    "org": "各縣市交通局",
    "name": "東門圓環與大同路一段北桿(向南)",
    "city": "臺南市",
    "town": "中西區",
    "lon": 120.211409,
    "lat": 22.988699,
    "url": "https://trafficvideo.tainan.gov.tw/9dc2f929"
  },
  {
    "id": "TNT105",
    "org": "各縣市交通局",
    "name": "東門圓環與北門路一段電動車前分隔島(向東)",
    "city": "臺南市",
    "town": "中西區",
    "lon": 120.211338,
    "lat": 22.98933,
    "url": "https://trafficvideo.tainan.gov.tw/d997d872"
  },
  {
    "id": "TNT106",
    "org": "各縣市交通局",
    "name": "東門路一段與慶東街口(西向)",
    "city": "臺南市",
    "town": "東區",
    "lon": 120.216154,
    "lat": 22.987495,
    "url": "https://trafficvideo.tainan.gov.tw/0a1f007e"
  },
  {
    "id": "TNT107",
    "org": "各縣市交通局",
    "name": "東門路一段與慶東街口(東向)",
    "city": "臺南市",
    "town": "東區",
    "lon": 120.216047,
    "lat": 22.987451,
    "url": "https://trafficvideo.tainan.gov.tw/68524566"
  },
  {
    "id": "TNT108",
    "org": "各縣市交通局",
    "name": "東門路二段與富德街口(西向)",
    "city": "臺南市",
    "town": "東區",
    "lon": 120.223494,
    "lat": 22.985194,
    "url": "https://trafficvideo.tainan.gov.tw/b356aada"
  },
  {
    "id": "TNT109",
    "org": "各縣市交通局",
    "name": "東門路二段與富德街口(東向)",
    "city": "臺南市",
    "town": "東區",
    "lon": 120.223,
    "lat": 22.9852,
    "url": "https://trafficvideo.tainan.gov.tw/17dcd3fb"
  },
  {
    "id": "TNT110",
    "org": "各縣市交通局",
    "name": "東門路二段與裕農路口南桿(向北)",
    "city": "臺南市",
    "town": "東區",
    "lon": 120.224308,
    "lat": 22.984866,
    "url": "https://trafficvideo.tainan.gov.tw/786ae899"
  },
  {
    "id": "TNT111",
    "org": "各縣市交通局",
    "name": "東門路三段與自由路二段口(西向)",
    "city": "臺南市",
    "town": "東區",
    "lon": 120.237507,
    "lat": 22.975799,
    "url": "https://trafficvideo.tainan.gov.tw/40a96d3d"
  },
  {
    "id": "TNT112",
    "org": "各縣市交通局",
    "name": "東門路三段與自由路二段口(東向)",
    "city": "臺南市",
    "town": "東區",
    "lon": 120.237507,
    "lat": 22.975799,
    "url": "https://trafficvideo.tainan.gov.tw/088565ca"
  },
  {
    "id": "TNT113",
    "org": "各縣市交通局",
    "name": "東門路三段與東門路三段37巷口(西向)",
    "city": "臺南市",
    "town": "東區",
    "lon": 120.230556,
    "lat": 22.980193,
    "url": "https://trafficvideo.tainan.gov.tw/4427712d"
  },
  {
    "id": "TNT114",
    "org": "各縣市交通局",
    "name": "東門路三段與東門路三段37巷口(東向)",
    "city": "臺南市",
    "town": "東區",
    "lon": 120.230556,
    "lat": 22.980193,
    "url": "https://trafficvideo.tainan.gov.tw/6899d134"
  },
  {
    "id": "TNT115",
    "org": "各縣市交通局",
    "name": "東門路三段與崇學路口西桿(向東)",
    "city": "臺南市",
    "town": "東區",
    "lon": 120.226407,
    "lat": 22.983272,
    "url": "https://trafficvideo2.tainan.gov.tw/21f184a1"
  },
  {
    "id": "TNT116",
    "org": "各縣市交通局",
    "name": "林森路一段與崇明路口東桿(向西)",
    "city": "臺南市",
    "town": "東區",
    "lon": 120.216007,
    "lat": 22.982186,
    "url": "https://trafficvideo.tainan.gov.tw/eadc632c"
  },
  {
    "id": "TNT117",
    "org": "各縣市交通局",
    "name": "林森路二段與東門路二段口南桿(向北)",
    "city": "臺南市",
    "town": "東區",
    "lon": 120.222259,
    "lat": 22.985456,
    "url": "https://trafficvideo.tainan.gov.tw/0de1aa08"
  },
  {
    "id": "TNT118",
    "org": "各縣市交通局",
    "name": "金華路三段與府前路二段口(北桿)",
    "city": "臺南市",
    "town": "中西區",
    "lon": 120.192806,
    "lat": 22.991517,
    "url": "https://trafficvideo.tainan.gov.tw/172021001100"
  },
  {
    "id": "TNT119",
    "org": "各縣市交通局",
    "name": "金華路三段與府前路二段口(南桿)",
    "city": "臺南市",
    "town": "中西區",
    "lon": 120.192833,
    "lat": 22.991465,
    "url": "https://trafficvideo.tainan.gov.tw/172021002100"
  },
  {
    "id": "TNT120",
    "org": "各縣市交通局",
    "name": "長和路一段1巷25號前",
    "city": "臺南市",
    "town": "安南區",
    "lon": 120.238037,
    "lat": 23.05193,
    "url": "https://trafficvideo.tainan.gov.tw/1c370b80"
  },
  {
    "id": "TNT121",
    "org": "各縣市交通局",
    "name": "長和路一段與北外環道路口北桿(向南)",
    "city": "臺南市",
    "town": "安南區",
    "lon": 120.238591,
    "lat": 23.052606,
    "url": "https://trafficvideo2.tainan.gov.tw/81ba8de7"
  },
  {
    "id": "TNT122",
    "org": "各縣市交通局",
    "name": "長和路一段與北外環道路口東桿北側(向西)",
    "city": "臺南市",
    "town": "安南區",
    "lon": 120.238798,
    "lat": 23.052515,
    "url": "https://trafficvideo2.tainan.gov.tw/269a2df7"
  },
  {
    "id": "TNT123",
    "org": "各縣市交通局",
    "name": "長和路一段與北外環道路口東桿南側(向東)",
    "city": "臺南市",
    "town": "安南區",
    "lon": 120.238817,
    "lat": 23.052479,
    "url": "https://trafficvideo2.tainan.gov.tw/87b08c3c"
  },
  {
    "id": "TNT124",
    "org": "各縣市交通局",
    "name": "長和路一段與北外環道路口南桿(向北)",
    "city": "臺南市",
    "town": "安南區",
    "lon": 120.238778,
    "lat": 23.052422,
    "url": "https://trafficvideo2.tainan.gov.tw/a7e3df8f"
  },
  {
    "id": "TNT125",
    "org": "各縣市交通局",
    "name": "長和路一段與歷史博物館前",
    "city": "臺南市",
    "town": "安南區",
    "lon": 120.234083,
    "lat": 23.056821,
    "url": "https://trafficvideo2.tainan.gov.tw/77625bb0"
  },
  {
    "id": "TNT126",
    "org": "各縣市交通局",
    "name": "南門路與府前路一段口(北桿)",
    "city": "臺南市",
    "town": "中西區",
    "lon": 120.204575,
    "lat": 22.989015,
    "url": "https://trafficvideo.tainan.gov.tw/172021003100"
  },
  {
    "id": "TNT127",
    "org": "各縣市交通局",
    "name": "南門路與府前路一段口(南桿)",
    "city": "臺南市",
    "town": "中西區",
    "lon": 120.204608,
    "lat": 22.988956,
    "url": "https://trafficvideo.tainan.gov.tw/172021004100"
  },
  {
    "id": "TNT130",
    "org": "各縣市交通局",
    "name": "後甲圓環南桿(向北)",
    "city": "臺南市",
    "town": "東區",
    "lon": 120.233582,
    "lat": 22.988363,
    "url": "https://trafficvideo2.tainan.gov.tw/c9db808b"
  },
  {
    "id": "TNT131",
    "org": "各縣市交通局",
    "name": "健康路一段與南門路口東桿(向東)",
    "city": "臺南市",
    "town": "南區",
    "lon": 120.203814,
    "lat": 22.981337,
    "url": "https://trafficvideo2.tainan.gov.tw/539b8083"
  },
  {
    "id": "TNT132",
    "org": "各縣市交通局",
    "name": "健康路一段與南門路口南桿(向北)",
    "city": "臺南市",
    "town": "南區",
    "lon": 120.20371,
    "lat": 22.98124,
    "url": "https://trafficvideo.tainan.gov.tw/ef80a475"
  },
  {
    "id": "TNT133",
    "org": "各縣市交通局",
    "name": "健康路三段與光洲路口西桿(向西)",
    "city": "臺南市",
    "town": "安平區",
    "lon": 120.161469,
    "lat": 22.984889,
    "url": "https://trafficvideo.tainan.gov.tw/87627986"
  },
  {
    "id": "TNT134",
    "org": "各縣市交通局",
    "name": "麻豆圓環(北桿)",
    "city": "臺南市",
    "town": "麻豆區",
    "lon": 120.241056,
    "lat": 23.185544,
    "url": "https://trafficvideo.tainan.gov.tw/172023002100"
  },
  {
    "id": "TNT135",
    "org": "各縣市交通局",
    "name": "麻豆圓環(北桿)麻豆農會旁警局",
    "city": "臺南市",
    "town": "麻豆區",
    "lon": 120.241003,
    "lat": 23.186369,
    "url": "https://trafficvideo.tainan.gov.tw/172023001100"
  },
  {
    "id": "TNT136",
    "org": "各縣市交通局",
    "name": "麻豆圓環(西北桿)-1",
    "city": "臺南市",
    "town": "麻豆區",
    "lon": 120.240789,
    "lat": 23.185243,
    "url": "https://trafficvideo.tainan.gov.tw/172023004100"
  },
  {
    "id": "TNT137",
    "org": "各縣市交通局",
    "name": "麻豆圓環(西北桿)-2",
    "city": "臺南市",
    "town": "麻豆區",
    "lon": 120.240789,
    "lat": 23.185243,
    "url": "https://trafficvideo.tainan.gov.tw/172023004200"
  },
  {
    "id": "TNT138",
    "org": "各縣市交通局",
    "name": "麻豆圓環(西南桿)",
    "city": "臺南市",
    "town": "麻豆區",
    "lon": 120.240785,
    "lat": 23.18502,
    "url": "https://trafficvideo.tainan.gov.tw/172023005100"
  },
  {
    "id": "TNT139",
    "org": "各縣市交通局",
    "name": "麻豆圓環(東桿)-1",
    "city": "臺南市",
    "town": "麻豆區",
    "lon": 120.241327,
    "lat": 23.185039,
    "url": "https://trafficvideo.tainan.gov.tw/172023006100"
  },
  {
    "id": "TNT140",
    "org": "各縣市交通局",
    "name": "麻豆圓環(東桿)-2",
    "city": "臺南市",
    "town": "麻豆區",
    "lon": 120.241327,
    "lat": 23.185039,
    "url": "https://trafficvideo.tainan.gov.tw/172023006200"
  },
  {
    "id": "TNT141",
    "org": "各縣市交通局",
    "name": "麻豆圓環(南桿)阿蘭碗粿旁警局",
    "city": "臺南市",
    "town": "麻豆區",
    "lon": 120.241081,
    "lat": 23.184756,
    "url": "https://trafficvideo.tainan.gov.tw/172023003100"
  },
  {
    "id": "TNT142",
    "org": "各縣市交通局",
    "name": "善化區 178線與南科北路口西桿(向東)",
    "city": "臺南市",
    "town": "善化區",
    "lon": 120.273487,
    "lat": 23.131497,
    "url": "https://trafficvideo2.tainan.gov.tw/ae53194c"
  },
  {
    "id": "TNT143",
    "org": "各縣市交通局",
    "name": "華平路與民權路四段口(向南)",
    "city": "臺南市",
    "town": "中西區",
    "lon": 120.17583,
    "lat": 23.000157,
    "url": "https://trafficvideo2.tainan.gov.tw/bc5ca4b4"
  },
  {
    "id": "TNT144",
    "org": "各縣市交通局",
    "name": "新市區 南135與大洲二號橋(南側)",
    "city": "臺南市",
    "town": "新市區",
    "lon": 120.255556,
    "lat": 23.070593,
    "url": "https://trafficvideo2.tainan.gov.tw/a2aba6dc"
  },
  {
    "id": "TNT145",
    "org": "各縣市交通局",
    "name": "新市區 南科聯絡道與北外環道路北桿(向南)",
    "city": "臺南市",
    "town": "新市區",
    "lon": 120.272853,
    "lat": 23.061278,
    "url": "https://trafficvideo2.tainan.gov.tw/783cbdbb"
  },
  {
    "id": "TNT146",
    "org": "各縣市交通局",
    "name": "新市區 南科聯絡道與北外環道路西桿(向東)",
    "city": "臺南市",
    "town": "新市區",
    "lon": 120.272592,
    "lat": 23.061158,
    "url": "https://trafficvideo2.tainan.gov.tw/1bf64214"
  },
  {
    "id": "TNT147",
    "org": "各縣市交通局",
    "name": "新市區 南科聯絡道與國道8號橋下(向西)",
    "city": "臺南市",
    "town": "新市區",
    "lon": 120.277186,
    "lat": 23.064647,
    "url": "https://trafficvideo2.tainan.gov.tw/06c801e8"
  },
  {
    "id": "TNT148",
    "org": "各縣市交通局",
    "name": "新市區 新港社大道與中山路口",
    "city": "臺南市",
    "town": "新市區",
    "lon": 120.281742,
    "lat": 23.062127,
    "url": "https://trafficvideo2.tainan.gov.tw/9a2e174e"
  },
  {
    "id": "TNT149",
    "org": "各縣市交通局",
    "name": "新市區 新港社大道與社內產業道路",
    "city": "臺南市",
    "town": "新市區",
    "lon": 120.277842,
    "lat": 23.072913,
    "url": "https://trafficvideo2.tainan.gov.tw/53404504"
  },
  {
    "id": "TNT150",
    "org": "各縣市交通局",
    "name": "新市區 新港社大道與南科聯絡道東桿(向西)",
    "city": "臺南市",
    "town": "新市區",
    "lon": 120.280274,
    "lat": 23.067669,
    "url": "https://trafficvideo2.tainan.gov.tw/8d6cb18a"
  },
  {
    "id": "TNT151",
    "org": "各縣市交通局",
    "name": "新市區 新港社大道與南科聯絡道南桿(向北)",
    "city": "臺南市",
    "town": "新市區",
    "lon": 120.280367,
    "lat": 23.06696,
    "url": "https://trafficvideo2.tainan.gov.tw/129e01dc"
  },
  {
    "id": "TNT152",
    "org": "各縣市交通局",
    "name": "新市區 新港社大道與富強路口",
    "city": "臺南市",
    "town": "新市區",
    "lon": 120.281184,
    "lat": 23.064375,
    "url": "https://trafficvideo2.tainan.gov.tw/17bb0240"
  },
  {
    "id": "TNT160",
    "org": "各縣市交通局",
    "name": "新營區 中山路與文化街口(西向)",
    "city": "臺南市",
    "town": "新營區",
    "lon": 120.314078,
    "lat": 23.302662,
    "url": "https://trafficvideo2.tainan.gov.tw/e2524005"
  },
  {
    "id": "TNT161",
    "org": "各縣市交通局",
    "name": "新營區 中山路與同濟街口(西向)",
    "city": "臺南市",
    "town": "新營區",
    "lon": 120.32029,
    "lat": 23.305981,
    "url": "https://trafficvideo2.tainan.gov.tw/ad2c036f"
  },
  {
    "id": "TNT162",
    "org": "各縣市交通局",
    "name": "新營區 中山路與同濟街口(東向)",
    "city": "臺南市",
    "town": "新營區",
    "lon": 120.320207,
    "lat": 23.305853,
    "url": "https://trafficvideo.tainan.gov.tw/e4524495"
  },
  {
    "id": "TNT163",
    "org": "各縣市交通局",
    "name": "新營區 復興路與金華路二段口",
    "city": "臺南市",
    "town": "新營區",
    "lon": 120.297423,
    "lat": 23.305548,
    "url": "https://trafficvideo2.tainan.gov.tw/1dfc2170"
  },
  {
    "id": "TNT164",
    "org": "各縣市交通局",
    "name": "新營區 復興路與長榮路二段口",
    "city": "臺南市",
    "town": "新營區",
    "lon": 120.293449,
    "lat": 23.306612,
    "url": "https://trafficvideo2.tainan.gov.tw/799cace0"
  },
  {
    "id": "TNT165",
    "org": "各縣市交通局",
    "name": "新營區 復興路與長榮路二段口(東向)",
    "city": "臺南市",
    "town": "新營區",
    "lon": 120.293449,
    "lat": 23.306612,
    "url": "https://trafficvideo.tainan.gov.tw/cf7695a6"
  },
  {
    "id": "TNT166",
    "org": "各縣市交通局",
    "name": "新營區 復興路與長榮路二段口西桿(向西)",
    "city": "臺南市",
    "town": "新營區",
    "lon": 120.293405,
    "lat": 23.306644,
    "url": "https://trafficvideo2.tainan.gov.tw/9f277849"
  },
  {
    "id": "TNT167",
    "org": "各縣市交通局",
    "name": "新營區 復興路與長榮路二段口南桿(向北)",
    "city": "臺南市",
    "town": "新營區",
    "lon": 120.293545,
    "lat": 23.306403,
    "url": "https://trafficvideo2.tainan.gov.tw/a3f5f3d2"
  },
  {
    "id": "TNT168",
    "org": "各縣市交通局",
    "name": "新營區 復興路與復興路305巷口(西向)",
    "city": "臺南市",
    "town": "新營區",
    "lon": 120.301931,
    "lat": 23.304386,
    "url": "https://trafficvideo2.tainan.gov.tw/c72b68d0"
  },
  {
    "id": "TNT169",
    "org": "各縣市交通局",
    "name": "新營區 復興路與復興路803巷口",
    "city": "臺南市",
    "town": "新營區",
    "lon": 120.286515,
    "lat": 23.30866,
    "url": "https://trafficvideo2.tainan.gov.tw/8e361794"
  },
  {
    "id": "TNT170",
    "org": "各縣市交通局",
    "name": "新營區 復興路與復興路803巷口(西向)",
    "city": "臺南市",
    "town": "新營區",
    "lon": 120.286515,
    "lat": 23.30866,
    "url": "https://trafficvideo.tainan.gov.tw/2ec8d3ed"
  },
  {
    "id": "TNT171",
    "org": "各縣市交通局",
    "name": "裕農路與裕義路口南桿(向西)",
    "city": "臺南市",
    "town": "仁德區",
    "lon": 120.247964,
    "lat": 22.990599,
    "url": "https://trafficvideo.tainan.gov.tw/fa4fdc4a"
  },
  {
    "id": "TNT172",
    "org": "各縣市交通局",
    "name": "裕農路與裕農三街口(東向)",
    "city": "臺南市",
    "town": "東區",
    "lon": 120.239712,
    "lat": 22.989093,
    "url": "https://trafficvideo.tainan.gov.tw/f1bfc1c7"
  },
  {
    "id": "TNT173",
    "org": "各縣市交通局",
    "name": "遊憩碼頭停車場",
    "city": "臺南市",
    "town": "安平區",
    "lon": 120.160586,
    "lat": 22.997586,
    "url": "https://trafficvideo2.tainan.gov.tw/192168234003"
  },
  {
    "id": "TNT174",
    "org": "各縣市交通局",
    "name": "樹屋停車場",
    "city": "臺南市",
    "town": "安平區",
    "lon": 120.157353,
    "lat": 23.003536,
    "url": "https://trafficvideo2.tainan.gov.tw/192168234001"
  },
  {
    "id": "TNT175",
    "org": "各縣市交通局",
    "name": "歸仁區 中正南路二段與大武路二段口南桿(向北)",
    "city": "臺南市",
    "town": "歸仁區",
    "lon": 120.274192,
    "lat": 22.920803,
    "url": "https://trafficvideo.tainan.gov.tw/819b1ef2"
  },
  {
    "id": "TNT176",
    "org": "各縣市交通局",
    "name": "歸仁區 中正南路二段與中油高鐵站(向北)",
    "city": "臺南市",
    "town": "歸仁區",
    "lon": 120.277376,
    "lat": 22.928757,
    "url": "https://trafficvideo2.tainan.gov.tw/b15b446c"
  },
  {
    "id": "TNT177",
    "org": "各縣市交通局",
    "name": "歸仁區 中正南路二段與高鐵大道西桿(向東)",
    "city": "臺南市",
    "town": "歸仁區",
    "lon": 120.275643,
    "lat": 22.924544,
    "url": "https://trafficvideo.tainan.gov.tw/f9281eae"
  },
  {
    "id": "TNT178",
    "org": "各縣市交通局",
    "name": "歸仁區 中正南路二段與高鐵大道南桿(向北)",
    "city": "臺南市",
    "town": "歸仁區",
    "lon": 120.275693,
    "lat": 22.924184,
    "url": "https://trafficvideo.tainan.gov.tw/9a005176"
  },
  {
    "id": "TNT179",
    "org": "各縣市交通局",
    "name": "歸仁區 中正南路二段與歸仁八路口東桿(向西)",
    "city": "臺南市",
    "town": "歸仁區",
    "lon": 120.276981,
    "lat": 22.926885,
    "url": "https://trafficvideo.tainan.gov.tw/cf98a255"
  },
  {
    "id": "TNT180",
    "org": "各縣市交通局",
    "name": "歸仁區 中正南路二段與歸仁八路口南桿(向北)",
    "city": "臺南市",
    "town": "歸仁區",
    "lon": 120.276835,
    "lat": 22.926837,
    "url": "https://trafficvideo.tainan.gov.tw/687a906d"
  },
  {
    "id": "TNT181",
    "org": "各縣市交通局",
    "name": "歸仁區 台86側車道與高發二路口東桿(向西)",
    "city": "臺南市",
    "town": "歸仁區",
    "lon": 120.286186,
    "lat": 22.93439,
    "url": "https://trafficvideo2.tainan.gov.tw/6d3a22cf"
  },
  {
    "id": "TNT182",
    "org": "各縣市交通局",
    "name": "歸仁區 武當路與歸仁十二路口西桿(向東)",
    "city": "臺南市",
    "town": "歸仁區",
    "lon": 120.28544,
    "lat": 22.922151,
    "url": "https://trafficvideo2.tainan.gov.tw/ebf851be"
  },
  {
    "id": "TNT183",
    "org": "各縣市交通局",
    "name": "歸仁區 歸仁一路與高發二路口南桿(向北)",
    "city": "臺南市",
    "town": "歸仁區",
    "lon": 120.286878,
    "lat": 22.932385,
    "url": "https://trafficvideo2.tainan.gov.tw/59337265"
  },
  {
    "id": "TNT184",
    "org": "各縣市交通局",
    "name": "歸仁區 歸仁七路與高發一路口東桿(向西)",
    "city": "臺南市",
    "town": "歸仁區",
    "lon": 120.287345,
    "lat": 22.927576,
    "url": "https://trafficvideo.tainan.gov.tw/1914bcd5"
  },
  {
    "id": "TNT185",
    "org": "各縣市交通局",
    "name": "歸仁區 歸仁十三路與高發一路口西桿(向西)",
    "city": "臺南市",
    "town": "歸仁區",
    "lon": 120.288906,
    "lat": 22.923636,
    "url": "https://trafficvideo.tainan.gov.tw/3e6342c7"
  },
  {
    "id": "TNT186",
    "org": "各縣市交通局",
    "name": "歸仁區 歸仁大道與歸仁七路口北桿(向南)",
    "city": "臺南市",
    "town": "歸仁區",
    "lon": 120.285568,
    "lat": 22.927028,
    "url": "https://trafficvideo2.tainan.gov.tw/3b0cdb38"
  },
  {
    "id": "TNT187",
    "org": "各縣市交通局",
    "name": "歸仁區 歸仁大道與歸仁十八路口西桿(向西)",
    "city": "臺南市",
    "town": "歸仁區",
    "lon": 120.28798,
    "lat": 22.92071,
    "url": "https://trafficvideo2.tainan.gov.tw/721331e7"
  },
  {
    "id": "TNT188",
    "org": "各縣市交通局",
    "name": "歸仁區 歸仁大道與歸仁十三路口東南桿(向北)",
    "city": "臺南市",
    "town": "歸仁區",
    "lon": 120.287631,
    "lat": 22.922966,
    "url": "https://trafficvideo2.tainan.gov.tw/26f189b2"
  },
  {
    "id": "TNT189",
    "org": "各縣市交通局",
    "name": "歸仁區 歸仁五路與高發一路口西南桿(向東北)",
    "city": "臺南市",
    "town": "歸仁區",
    "lon": 120.286123,
    "lat": 22.929209,
    "url": "https://trafficvideo.tainan.gov.tw/48e70b5d"
  },
  {
    "id": "TNT190",
    "org": "各縣市交通局",
    "name": "鹽水區 三福路與中正路口",
    "city": "臺南市",
    "town": "鹽水區",
    "lon": 120.267383,
    "lat": 23.320728,
    "url": "https://trafficvideo.tainan.gov.tw/5949284b"
  },
  {
    "id": "TNT191",
    "org": "各縣市交通局",
    "name": "鹽水區 文康中心停車場",
    "city": "臺南市",
    "town": "鹽水區",
    "lon": 120.26304,
    "lat": 23.318356,
    "url": "https://trafficvideo.tainan.gov.tw/dbb94c8f"
  },
  {
    "id": "TNT192",
    "org": "各縣市交通局",
    "name": "鹽水區 月津路與南門路口(北向)",
    "city": "臺南市",
    "town": "鹽水區",
    "lon": 120.266727,
    "lat": 23.316336,
    "url": "https://trafficvideo.tainan.gov.tw/231b2f4f"
  },
  {
    "id": "TNT193",
    "org": "各縣市交通局",
    "name": "鹽水區 月津路與南門路口(南向)",
    "city": "臺南市",
    "town": "鹽水區",
    "lon": 120.266681,
    "lat": 23.316571,
    "url": "https://trafficvideo.tainan.gov.tw/ecd9925f"
  },
  {
    "id": "TNT194",
    "org": "各縣市交通局",
    "name": "鹽水區 台19線與南3(北向)",
    "city": "臺南市",
    "town": "鹽水區",
    "lon": 120.263386,
    "lat": 23.310118,
    "url": "https://trafficvideo.tainan.gov.tw/514d9765"
  },
  {
    "id": "TNT195",
    "org": "各縣市交通局",
    "name": "鹽水區 台19線與南3(南向)",
    "city": "臺南市",
    "town": "鹽水區",
    "lon": 120.263386,
    "lat": 23.310118,
    "url": "https://trafficvideo.tainan.gov.tw/64a4aa81"
  },
  {
    "id": "TNT196",
    "org": "各縣市交通局",
    "name": "鹽水區 岸內糖廠",
    "city": "臺南市",
    "town": "鹽水區",
    "lon": 120.260725,
    "lat": 23.328344,
    "url": "https://trafficvideo.tainan.gov.tw/2670807"
  },
  {
    "id": "TNT197",
    "org": "各縣市交通局",
    "name": "鹽水區 忠孝路與月津路口(西向)",
    "city": "臺南市",
    "town": "鹽水區",
    "lon": 120.26409,
    "lat": 23.311172,
    "url": "https://trafficvideo.tainan.gov.tw/22828577"
  },
  {
    "id": "TNT198",
    "org": "各縣市交通局",
    "name": "鹽水區 忠孝路與信義路口(西向)",
    "city": "臺南市",
    "town": "鹽水區",
    "lon": 120.272941,
    "lat": 23.311077,
    "url": "https://trafficvideo.tainan.gov.tw/7304f8f9"
  },
  {
    "id": "TNT199",
    "org": "各縣市交通局",
    "name": "鹽水區 忠孝路與信義路口(東向)",
    "city": "臺南市",
    "town": "鹽水區",
    "lon": 120.27282,
    "lat": 23.311008,
    "url": "https://trafficvideo.tainan.gov.tw/dbf1601b"
  },
  {
    "id": "TNT200",
    "org": "各縣市交通局",
    "name": "鹽水區 忠孝路與南門路口",
    "city": "臺南市",
    "town": "鹽水區",
    "lon": 120.271003,
    "lat": 23.311373,
    "url": "https://trafficvideo.tainan.gov.tw/ae14cdba"
  },
  {
    "id": "TNT201",
    "org": "各縣市交通局",
    "name": "鹽水區 信義路與文武街口(北向)",
    "city": "臺南市",
    "town": "鹽水區",
    "lon": 120.271433,
    "lat": 23.318134,
    "url": "https://trafficvideo.tainan.gov.tw/33b79cfb"
  },
  {
    "id": "TNT202",
    "org": "各縣市交通局",
    "name": "鹽水區 信義路與文武街口(南向)",
    "city": "臺南市",
    "town": "鹽水區",
    "lon": 120.271347,
    "lat": 23.318114,
    "url": "https://trafficvideo.tainan.gov.tw/c4da63f5"
  },
  {
    "id": "TNT203",
    "org": "各縣市交通局",
    "name": "鹽水區 南門路停車場",
    "city": "臺南市",
    "town": "鹽水區",
    "lon": 120.267172,
    "lat": 23.315034,
    "url": "https://trafficvideo.tainan.gov.tw/d46fb9da"
  },
  {
    "id": "TNT204",
    "org": "各縣市交通局",
    "name": "鹽水區 新太路與四維路(北向)",
    "city": "臺南市",
    "town": "鹽水區",
    "lon": 120.271912,
    "lat": 23.308467,
    "url": "https://trafficvideo.tainan.gov.tw/517cb064"
  }
]